city name	coutry code	latitude	longitude	state	city code
Birmingham	US	33.52	-86.79	AL	10040
Decatur	US	34.57	-86.98	AL	10108
Dothan	US	31.23	-85.4	AL	10112
Gadsden	US	34	-86.01	AL	10158
Hoover	US	33.37	-86.81	AL	10218
Huntsville	US	34.7	-86.62	AL	10221
Mobile	US	30.67	-88.08	AL	10287
Montgomery	US	32.35	-86.28	AL	10290
Tuscaloosa	US	33.23	-87.54	AL	10433
Anchorage	US	61.17	-149.18	AK	10485
Chandler	US	33.29	-111.86	AZ	10814
Flagstaff	US	35.18	-111.61	AZ	10839
Glendale	US	33.58	-112.2	AZ	10849
Mesa	US	33.41	-111.74	AZ	10881
Peoria	US	33.68	-112.24	AZ	10897
Phoenix	US	33.54	-112.07	AZ	10899
Scottsdale	US	33.68	-111.87	AZ	10925
Sun City	US	33.61	-112.28	AZ	10938
Tempe	US	33.38	-111.93	AZ	10947
Tucson	US	32.19	-110.89	AZ	10954
Yuma	US	32.67	-114.62	AZ	10968
Fayetteville	US	36.07	-94.15	AR	11117
Fort Smith	US	35.36	-94.38	AR	11125
Jonesboro	US	35.82	-90.68	AR	11213
Little Rock	US	34.72	-92.35	AR	11242
North Little Rock	US	34.78	-92.25	AR	11307
Pine Bluff	US	34.21	-92.01	AR	11340
Alameda	US	37.75	-122.27	CA	11473
Alhambra	US	34.08	-118.13	CA	11476
Altadena	US	34.19	-118.13	CA	11480
Anaheim	US	33.83	-117.87	CA	11485
Antioch	US	37.98	-121.79	CA	11489
Apple Valley	US	34.52	-117.21	CA	11490
Arcadia	US	34.13	-118.03	CA	11494
Arden-Arcade	US	38.6	-121.37	CA	11496
Azusa	US	34.13	-117.91	CA	11513
Bakersfield	US	35.35	-119	CA	11514
Baldwin Park	US	34.08	-117.97	CA	11515
Bellflower	US	33.88	-118.12	CA	11525
Bell Gardens	US	33.96	-118.15	CA	11526
Berkeley	US	37.86	-122.29	CA	11531
Buena Park	US	33.85	-118	CA	11565
Burbank	US	34.19	-118.32	CA	11566
Camarillo	US	34.22	-119.02	CA	11577
Carlsbad	US	33.12	-117.28	CA	11586
Carmichael	US	38.63	-121.31	CA	11589
Carson	US	33.83	-118.25	CA	11591
Castro Valley	US	37.71	-122.06	CA	11595
Cerritos	US	33.86	-118.06	CA	11601
Chico	US	39.75	-121.8	CA	11608
Chino	US	34	-117.68	CA	11609
Chula Vista	US	32.62	-117.04	CA	11612
Citrus Heights	US	38.69	-121.28	CA	11614
Clovis	US	36.81	-119.69	CA	11620
Colton	US	34.05	-117.32	CA	11626
Compton	US	33.89	-118.22	CA	11630
Concord	US	37.97	-121.99	CA	11631
Corona	US	33.86	-117.56	CA	11635
Costa Mesa	US	33.66	-117.91	CA	11639
Covina	US	34.09	-117.88	CA	11645
Culver City	US	34	-118.39	CA	11651
Cupertino	US	37.31	-122.04	CA	11652
Cypress	US	33.81	-118.03	CA	11655
Daly City	US	37.68	-122.46	CA	11656
Davis	US	38.55	-121.73	CA	11659
Diamond Bar	US	33.99	-117.81	CA	11672
Downey	US	33.93	-118.12	CA	11681
East Los Angeles	US	34.03	-118.16	CA	11692
El Cajon	US	32.8	-116.96	CA	11701
El Monte	US	34.07	-118.02	CA	11710
El Toro	US	33.64	-117.68	CA	11715
Encinitas	US	33.04	-117.26	CA	11720
Escondido	US	33.13	-117.07	CA	11722
Fairfield	US	38.25	-122.04	CA	11728
Florence-Graham	US	33.96	-118.24	CA	11738
Fontana	US	34.09	-117.45	CA	11741
Fountain Valley	US	33.71	-117.95	CA	11750
Fremont	US	37.52	-121.99	CA	11754
Fresno	US	36.78	-119.79	CA	11756
Fullerton	US	33.88	-117.92	CA	11757
Gardena	US	33.89	-118.3	CA	11759
Garden Grove	US	33.77	-117.95	CA	11761
Glendale	US	34.17	-118.25	CA	11766
Glendora	US	34.14	-117.84	CA	11767
Hacienda Heights	US	33.99	-117.97	CA	11785
Hawthorne	US	33.91	-118.34	CA	11791
Hayward	US	37.62	-122.1	CA	11793
Hesperia	US	34.41	-117.3	CA	11799
Huntington Beach	US	33.69	-118	CA	11815
Huntington Park	US	33.98	-118.21	CA	11816
Inglewood	US	33.95	-118.34	CA	11825
Irvine	US	33.66	-117.79	CA	11829
Laguna Hills	US	33.59	-117.71	CA	11856
Laguna Niguel	US	33.52	-117.7	CA	11857
La Habra	US	33.92	-117.95	CA	11859
Lakeside	US	32.84	-116.9	CA	11870
Lakewood	US	33.84	-118.12	CA	11872
La Mesa	US	32.76	-117.01	CA	11873
La Mirada	US	33.9	-118	CA	11874
Lancaster	US	34.69	-118.17	CA	11876
Livermore	US	37.69	-121.76	CA	11905
Lodi	US	38.12	-121.29	CA	11908
Lompoc	US	34.66	-120.46	CA	11912
Long Beach	US	33.78	-118.15	CA	11915
Los Angeles	US	34.11	-118.41	CA	11920
Lynwood	US	33.92	-118.2	CA	11931
Manteca	US	37.8	-121.22	CA	11940
Merced	US	37.29	-120.48	CA	11957
Milpitas	US	37.43	-121.89	CA	11960
Mission Viejo	US	33.61	-117.65	CA	11964
Modesto	US	37.65	-120.99	CA	11966
Montebello	US	34.01	-118.1	CA	11973
Monterey Park	US	34.04	-118.13	CA	11975
Moreno Valley	US	33.92	-117.21	CA	11981
Mountain View	US	37.4	-122.07	CA	11987
Napa	US	38.29	-122.29	CA	11995
National City	US	32.66	-117.09	CA	11996
Newark	US	37.51	-122.03	CA	12000
Newport Beach	US	33.61	-117.9	CA	12002
North Highlands	US	38.66	-121.38	CA	12011
Norwalk	US	33.9	-118.08	CA	12012
Novato	US	38.09	-122.55	CA	12013
Oakland	US	37.77	-122.22	CA	12017
Oceanside	US	33.22	-117.31	CA	12023
Ontario	US	34.05	-117.6	CA	12027
Orange	US	33.8	-117.82	CA	12029
Oxnard	US	34.19	-119.21	CA	12037
Pacifica	US	37.61	-122.47	CA	12039
Palmdale	US	34.6	-118.08	CA	12043
Palm Springs	US	33.77	-116.52	CA	12047
Palo Alto	US	37.39	-122.13	CA	12048
Paramount	US	33.89	-118.16	CA	12051
Pasadena	US	34.16	-118.13	CA	12056
Petaluma	US	38.24	-122.62	CA	12061
Pico Rivera	US	33.98	-118.08	CA	12063
Pittsburg	US	38.01	-121.88	CA	12070
Placentia	US	33.88	-117.85	CA	12072
Pleasanton	US	37.67	-121.88	CA	12076
Pomona	US	34.05	-117.76	CA	12081
Poway	US	32.98	-117.01	CA	12088
Rancho Cordova	US	38.59	-121.3	CA	12095
Rancho Cucamonga	US	34.12	-117.57	CA	12096
Rancho Palos Verdes	US	33.75	-118.36	CA	12099
Redding	US	40.57	-122.36	CA	12104
Redlands	US	34.05	-117.17	CA	12105
Redondo Beach	US	33.85	-118.37	CA	12106
Redwood City	US	37.51	-122.2	CA	12108
Rialto	US	34.11	-117.38	CA	12110
Richmond	US	37.95	-122.36	CA	12112
Riverside	US	33.94	-117.39	CA	12121
Rosemead	US	34.06	-118.08	CA	12131
Roseville	US	38.75	-121.29	CA	12133
Rowland Heights	US	33.97	-117.89	CA	12136
Sacramento	US	38.56	-121.46	CA	12139
Salinas	US	36.68	-121.63	CA	12142
San Bernardino	US	34.13	-117.29	CA	12146
San Bruno	US	37.62	-122.42	CA	12147
San Buenaventura - Ventura	US	34.26	-119.25	CA	12148
San Clemente	US	33.44	-117.61	CA	12150
San Diego	US	32.81	-117.13	CA	12152
San Francisco	US	37.79	-122.55	CA	12156
San Jose	US	37.3	-121.84	CA	12161
San Leandro	US	37.7	-122.16	CA	12164
San Luis Obispo	US	35.27	-120.66	CA	12166
San Marcos	US	33.13	-117.17	CA	12167
San Mateo	US	37.56	-122.31	CA	12170
San Rafael	US	37.98	-122.5	CA	12173
Santa Ana	US	33.73	-117.88	CA	12175
Santa Barbara	US	34.42	-119.72	CA	12176
Santa Clara	US	37.36	-121.96	CA	12177
Santa Clarita	US	34.41	-118.51	CA	12178
Santa Cruz	US	36.97	-122.03	CA	12179
Santa Maria	US	34.93	-120.43	CA	12181
Santa Monica	US	34.01	-118.49	CA	12182
Santa Rosa	US	38.44	-122.7	CA	12184
Santee	US	32.85	-116.98	CA	12187
Seaside	US	36.62	-121.81	CA	12193
Simi Valley	US	34.26	-118.75	CA	12202
South Gate	US	33.94	-118.19	CA	12212
South San Francisco	US	37.65	-122.3	CA	12217
South Whittier	US	33.93	-118.02	CA	12222
Spring Valley	US	32.72	-116.98	CA	12224
Stockton	US	37.96	-121.3	CA	12228
Sunnyvale	US	37.38	-122.02	CA	12235
Thousand Oaks	US	34.19	-118.86	CA	12252
Torrance	US	33.83	-118.34	CA	12257
Turlock	US	37.5	-120.85	CA	12265
Tustin	US	33.72	-117.81	CA	12266
Union City	US	37.6	-122.01	CA	12273
Upland	US	34.11	-117.65	CA	12274
Vacaville	US	38.36	-121.96	CA	12275
Vallejo	US	38.1	-122.26	CA	12277
Victorville	US	34.52	-117.33	CA	12284
Visalia	US	36.32	-119.32	CA	12289
Vista	US	33.18	-117.23	CA	12290
Walnut Creek	US	37.9	-122.04	CA	12292
West Covina	US	34.05	-117.9	CA	12304
Westminster	US	33.75	-117.99	CA	12309
Whittier	US	33.96	-118.02	CA	12318
Woodland	US	38.67	-121.76	CA	12335
Yorba Linda	US	33.88	-117.76	CA	12339
Arvada	US	39.82	-105.1	CO	12355
Aurora	US	39.71	-104.72	CO	12358
Boulder	US	40.02	-105.25	CO	12372
Colorado Springs	US	38.86	-104.75	CO	12403
Denver	US	39.76	-104.87	CO	12421
Fort Collins	US	40.55	-105.06	CO	12449
Greeley	US	40.42	-104.74	CO	12473
Lakewood	US	39.69	-105.11	CO	12512
Longmont	US	40.17	-105.11	CO	12525
Loveland	US	40.41	-105.07	CO	12527
Pueblo	US	38.27	-104.62	CO	12581
Southglenn	US	39.58	-104.95	CO	12614
Thornton	US	39.89	-104.95	CO	12626
Westminster	US	39.88	-105.05	CO	12642
Bridgeport	US	41.18	-73.19	CT	12661
Bristol	US	41.68	-72.94	CT	12662
Danbury	US	41.4	-73.47	CT	12677
East Hartford	US	41.76	-72.61	CT	12685
Hartford	US	41.76	-72.68	CT	12693
Meriden	US	41.53	-72.79	CT	12702
Middletown	US	41.54	-72.65	CT	12703
Milford	US	41.22	-73.06	CT	12704
New Britain	US	41.67	-72.78	CT	12709
New Haven	US	41.31	-72.92	CT	12711
Norwalk	US	41.09	-73.42	CT	12722
Norwich	US	41.55	-72.08	CT	12723
Stamford	US	41.09	-73.55	CT	12744
Stratford	US	41.2	-73.13	CT	12747
Waterbury	US	41.55	-73.03	CT	12757
West Hartford	US	41.76	-72.75	CT	12761
West Haven	US	41.27	-72.96	CT	12762
Wilmington	US	39.73	-75.52	DE	12839
Washington	US	38.9	-77.01	DC	12844
Boca Raton	US	26.37	-80.1	FL	12904
Boynton Beach	US	26.52	-80.08	FL	12909
Bradenton	US	27.48	-82.57	FL	12910
Brandon	US	27.92	-82.29	FL	12912
Cape Coral	US	26.63	-81.99	FL	12936
Carol City	US	25.94	-80.27	FL	12937
Clearwater	US	27.97	-82.76	FL	12956
Coral Gables	US	25.69	-80.26	FL	12970
Coral Springs	US	26.26	-80.25	FL	12971
Davie	US	26.08	-80.28	FL	12995
Daytona Beach	US	29.19	-81.05	FL	12996
Deerfield Beach	US	26.31	-80.12	FL	12999
Delray Beach	US	26.45	-80.08	FL	13004
Deltona	US	28.9	-81.2	FL	13006
Fort Lauderdale	US	26.14	-80.13	FL	13049
Fort Myers	US	26.63	-81.85	FL	13051
Gainesville	US	29.67	-82.33	FL	13065
Hialeah	US	25.86	-80.29	FL	13115
Hollywood	US	26.02	-80.16	FL	13132
Jacksonville	US	30.33	-81.65	FL	13161
Kendale Lakes	US	25.7	-80.4	FL	13175
Kendall	US	25.66	-80.33	FL	13176
Lakeland	US	28.04	-81.96	FL	13200
Largo	US	27.9	-82.78	FL	13218
Lauderhill	US	26.16	-80.23	FL	13221
Margate	US	26.24	-80.21	FL	13259
Melbourne	US	28.11	-80.64	FL	13268
Miami	US	25.77	-80.21	FL	13275
Miami Beach	US	25.81	-80.13	FL	13276
Miramar	US	25.97	-80.33	FL	13289
North Miami	US	25.9	-80.16	FL	13322
Ocala	US	29.18	-82.13	FL	13335
Olympia Heights	US	25.73	-80.35	FL	13343
Orlando	US	28.5	-81.37	FL	13349
Palm Bay	US	27.98	-80.66	FL	13360
Palm Harbor	US	28.08	-82.76	FL	13368
Pembroke Pines	US	26	-80.34	FL	13381
Pensacola	US	30.44	-87.18	FL	13383
Pinellas Park	US	27.85	-82.7	FL	13390
Plantation-Fort Lauderdale	US	26.12	-80.26	FL	13393
Pompano Beach	US	26.23	-80.13	FL	13400
Port Charlotte	US	26.98	-82.1	FL	13404
Port St. Lucie	US	27.27	-80.35	FL	13410
St. Petersburg	US	27.75	-82.64	FL	13445
Sarasota	US	27.33	-82.54	FL	13454
Sunrise	US	26.15	-80.29	FL	13500
Tallahassee	US	30.45	-84.28	FL	13506
Tamarac	US	26.2	-80.25	FL	13507
Tampa	US	27.95	-82.48	FL	13509
Titusville	US	28.58	-80.81	FL	13520
Town 'n' Country	US	28.01	-82.57	FL	13521
West Palm Beach	US	26.74	-80.12	FL	13564
Albany	US	31.57	-84.17	GA	13608
Athens	US	33.95	-83.39	GA	13626
Atlanta	US	33.76	-84.42	GA	13627
Augusta	US	33.45	-81.99	GA	13630
Columbus	US	32.51	-84.87	GA	13721
Macon	US	32.83	-83.65	GA	13932
Marietta	US	33.95	-84.54	GA	13938
Roswell	US	34.03	-84.35	GA	14067
Sandy Springs	US	33.93	-84.36	GA	14075
Savannah	US	32.02	-81.13	GA	14079
South Augusta	US	33.41	-82.04	GA	14098
Valdosta	US	30.84	-83.27	GA	14153
Warner Robins	US	32.61	-83.63	GA	14166
Hilo	US	19.69	-155.08	HI	14226
Honolulu	US	21.31	-157.8	HI	14231
Boise City	US	43.6	-116.22	ID	14341
Idaho Falls	US	43.49	-112.03	ID	14412
Pocatello	US	42.87	-112.46	ID	14476
Arlington Heights	US	42.09	-87.98	IL	14563
Aurora	US	41.76	-88.29	IL	14581
Belleville	US	38.52	-90	IL	14612
Berwyn	US	41.84	-87.79	IL	14626
Bloomington	US	40.47	-88.97	IL	14635
Bolingbrook	US	41.7	-88.07	IL	14640
Calumet City	US	41.61	-87.54	IL	14694
Champaign	US	40.11	-88.26	IL	14731
Chicago	US	41.83	-87.68	IL	14745
Cicero	US	41.84	-87.75	IL	14751
Decatur	US	39.85	-88.93	IL	14817
Des Plaines	US	42.03	-87.9	IL	14827
Downers Grove	US	41.79	-88.01	IL	14843
East St. Louis	US	38.61	-90.13	IL	14866
Elgin	US	42.03	-88.28	IL	14876
Elmhurst	US	41.89	-87.94	IL	14886
Evanston	US	42.04	-87.69	IL	14901
Hoffman Estates	US	42.06	-88.13	IL	15068
Joliet	US	41.52	-88.12	IL	15114
Lombard	US	41.87	-88.01	IL	15206
Moline	US	41.48	-90.48	IL	15304
Mount Prospect	US	42.06	-87.93	IL	15326
Naperville	US	41.76	-88.15	IL	15338
Normal	US	40.51	-88.99	IL	15373
Oak Lawn	US	41.71	-87.75	IL	15396
Oak Park	US	41.88	-87.78	IL	15397
Palatine	US	42.11	-88.04	IL	15431
Peoria	US	40.74	-89.6	IL	15456
Quincy	US	39.93	-91.38	IL	15498
Rockford	US	42.27	-89.06	IL	15536
Rock Island	US	41.47	-90.58	IL	15537
Schaumburg	US	42.03	-88.08	IL	15590
Skokie	US	42.03	-87.73	IL	15621
Springfield	US	39.78	-89.64	IL	15644
Waukegan	US	42.37	-87.86	IL	15765
Wheaton	US	41.85	-88.1	IL	15787
Anderson	US	40.09	-85.68	IN	15847
Bloomington	US	39.16	-86.52	IN	15872
Elkhart	US	41.68	-85.96	IN	15986
Evansville	US	37.98	-87.54	IN	15992
Fort Wayne	US	41.07	-85.13	IN	16004
Gary	US	41.59	-87.34	IN	16020
Hammond	US	41.62	-87.49	IN	16050
Indianapolis	US	39.77	-86.14	IN	16073
Kokomo	US	40.47	-86.13	IN	16096
Lafayette	US	40.41	-86.87	IN	16102
Mishawaka	US	41.66	-86.16	IN	16172
Muncie	US	40.19	-85.39	IN	16197
Richmond	US	39.82	-84.88	IN	16278
South Bend	US	41.67	-86.26	IN	16328
Terre Haute	US	39.47	-87.38	IN	16356
Ames	US	42.02	-93.62	IA	16448
Cedar Rapids	US	41.97	-91.66	IA	16559
Council Bluffs	US	41.23	-95.85	IA	16614
Davenport	US	41.55	-90.6	IA	16632
Des Moines	US	41.57	-93.61	IA	16650
Dubuque	US	42.5	-90.69	IA	16667
Iowa City	US	41.65	-91.53	IA	16835
Sioux City	US	42.5	-96.39	IA	17228
Waterloo	US	42.49	-92.35	IA	17324
Hutchinson	US	38.06	-97.91	KS	17659
Kansas City	US	39.11	-94.72	KS	17674
Lawrence	US	38.96	-95.25	KS	17696
Leavenworth	US	39.32	-94.92	KS	17697
Manhattan	US	39.19	-96.58	KS	17744
Olathe	US	38.88	-94.81	KS	17813
Overland Park	US	38.91	-94.68	KS	17828
Salina	US	38.81	-97.61	KS	17898
Shawnee	US	39.01	-94.8	KS	17917
Topeka	US	39.03	-95.69	KS	17948
Wichita	US	37.68	-97.34	KS	17994
Bowling Green	US	36.97	-86.44	KY	18047
Covington	US	39.03	-84.51	KY	18103
Lexington-Fayette	US	38.04	-84.45	KY	18251
Louisville	US	38.22	-85.74	KY	18260
Owensboro	US	37.75	-87.11	KY	18326
Alexandria	US	31.29	-92.46	LA	18486
Baton Rouge	US	30.44	-91.12	LA	18505
Bossier City	US	32.51	-93.66	LA	18518
Kenner	US	30.12	-90.22	LA	18670
Lafayette	US	30.21	-92.02	LA	18678
Lake Charles	US	30.21	-93.2	LA	18681
Metairie	US	29.99	-90.17	LA	18722
Monroe	US	32.51	-92.08	LA	18726
New Orleans	US	30.06	-89.93	LA	18746
Shreveport	US	32.47	-93.79	LA	18814
Lewiston	US	44.08	-70.17	ME	18922
Portland	US	43.66	-70.2	ME	18949
Aspen Hill	US	39.09	-77.07	MD	18990
Baltimore	US	39.3	-76.61	MD	18992
Bethesda	US	38.98	-77.12	MD	19002
Bowie	US	38.95	-76.73	MD	19006
Columbia	US	39.2	-76.85	MD	19055
Dundalk	US	39.26	-76.49	MD	19071
Ellicott City	US	39.27	-76.83	MD	19083
Essex	US	39.3	-76.44	MD	19085
Frederick	US	39.42	-77.41	MD	19096
Gaithersburg	US	39.14	-77.21	MD	19102
Germantown	US	39.17	-77.26	MD	19107
Potomac	US	39.02	-77.19	MD	19231
Rockville	US	39.08	-77.15	MD	19248
Silver Spring	US	39.01	-77.02	MD	19266
Towson	US	39.39	-76.62	MD	19283
Wheaton-Glenmont	US	39.05	-77.05	MD	19298
Arlington	US	42.41	-71.16	MA	19314
Attleboro	US	41.93	-71.29	MA	19316
Beverly	US	42.55	-70.84	MA	19324
Boston	US	42.33	-71.01	MA	19327
Brockton	US	42.08	-71.02	MA	19333
Brookline	US	42.32	-71.14	MA	19334
Cambridge	US	42.37	-71.11	MA	19337
Chicopee	US	42.17	-72.57	MA	19342
Fall River	US	41.71	-71.1	MA	19362
Fitchburg	US	42.58	-71.81	MA	19365
Framingham	US	42.3	-71.43	MA	19369
Haverhill	US	42.78	-71.08	MA	19382
Holyoke	US	42.21	-72.64	MA	19386
Lawrence	US	42.69	-71.16	MA	19395
Leominster	US	42.51	-71.77	MA	19398
Lowell	US	42.63	-71.32	MA	19402
Lynn	US	42.47	-70.96	MA	19404
Malden	US	42.43	-71.05	MA	19406
Medford	US	42.42	-71.1	MA	19417
New Bedford	US	41.66	-70.93	MA	19429
Newton	US	42.33	-71.2	MA	19431
Peabody	US	42.53	-70.97	MA	19458
Pittsfield	US	42.45	-73.26	MA	19461
Quincy	US	42.26	-71	MA	19465
Revere	US	42.41	-70.99	MA	19469
Salem	US	42.52	-70.86	MA	19474
Somerville	US	42.39	-71.1	MA	19484
Springfield	US	42.11	-72.53	MA	19494
Taunton	US	41.9	-71.09	MA	19498
Waltham	US	42.38	-71.24	MA	19508
Westfield	US	42.13	-72.75	MA	19522
Weymouth	US	42.2	-70.94	MA	19527
Worcester	US	42.26	-71.8	MA	19537
Ann Arbor	US	42.27	-83.73	MI	19555
Battle Creek	US	42.29	-85.22	MI	19575
Bay City	US	43.59	-83.88	MI	19576
Bloomfield Township	US	42.57	-83.27	MI	19600
Canton	US	42.3	-83.48	MI	19626
Clinton	US	42.58	-82.92	MI	19658
Dearborn	US	42.31	-83.21	MI	19680
Dearborn Heights	US	42.32	-83.27	MI	19681
Detroit	US	42.38	-83.1	MI	19686
East Lansing	US	42.73	-84.48	MI	19701
Farmington Hills	US	42.48	-83.37	MI	19725
Flint	US	43.02	-83.69	MI	19733
Grand Rapids	US	42.96	-85.65	MI	19766
Jackson	US	42.24	-84.4	MI	19826
Kalamazoo	US	42.27	-85.58	MI	19829
Kentwood	US	42.88	-85.59	MI	19834
Lansing	US	42.7	-84.55	MI	19853
Lincoln Park	US	42.24	-83.18	MI	19866
Livonia	US	42.39	-83.37	MI	19869
Midland	US	43.62	-84.22	MI	19912
Muskegon	US	43.22	-86.25	MI	19933
Pontiac	US	42.64	-83.28	MI	19996
Portage	US	42.2	-85.59	MI	19997
Redford	US	42.39	-83.29	MI	20012
Rochester Hills	US	42.66	-83.15	MI	20021
Roseville	US	42.5	-82.93	MI	20031
Royal Oak	US	42.5	-83.15	MI	20033
Saginaw	US	43.41	-83.94	MI	20034
St. Clair Shores	US	42.49	-82.89	MI	20039
Shelby	US	42.67	-83.03	MI	20055
Southfield	US	42.47	-83.25	MI	20064
Sterling Heights	US	42.58	-83.03	MI	20084
Taylor	US	42.22	-83.26	MI	20094
Troy	US	42.58	-83.14	MI	20104
Warren	US	42.49	-83.02	MI	20125
Waterford	US	42.66	-83.38	MI	20126
West Bloomfield Township	US	42.56	-83.38	MI	20133
Westland	US	42.31	-83.38	MI	20135
Wyoming	US	42.89	-85.7	MI	20154
Blaine	US	45.16	-93.2	MN	20233
Bloomington	US	44.82	-93.31	MN	20236
Brooklyn Park	US	45.1	-93.35	MN	20254
Burnsville	US	44.76	-93.27	MN	20269
Coon Rapids	US	45.17	-93.31	MN	20325
Duluth	US	46.78	-92.11	MN	20370
Eagan	US	44.81	-93.16	MN	20375
Eden Prairie	US	44.84	-93.45	MN	20383
Edina	US	44.89	-93.35	MN	20386
Maple Grove	US	45.1	-93.45	MN	20651
Minneapolis	US	44.96	-93.26	MN	20682
Minnetonka	US	44.93	-93.46	MN	20687
Plymouth	US	45.02	-93.46	MN	20789
Rochester	US	44.01	-92.47	MN	20819
St. Cloud	US	45.55	-94.17	MN	20849
St. Louis Park	US	44.94	-93.36	MN	20855
St. Paul	US	44.94	-93.1	MN	20859
Biloxi	US	30.41	-88.93	MS	21045
Greenville	US	33.38	-91.05	MS	21127
Gulfport	US	30.38	-89.06	MS	21132
Hattiesburg	US	31.31	-89.3	MS	21136
Jackson	US	32.32	-90.2	MS	21151
Meridian	US	32.38	-88.71	MS	21197
Blue Springs	US	39.02	-94.27	MO	21437
Chesterfield	US	38.65	-90.58	MO	21515
Columbia	US	38.95	-92.32	MO	21540
Florissant	US	38.79	-90.32	MO	21651
Independence	US	39.08	-94.35	MO	21777
Joplin	US	37.08	-94.5	MO	21794
Kansas City	US	39.12	-94.55	MO	21798
Lee's Summit	US	38.91	-94.38	MO	21853
St. Charles	US	38.79	-90.51	MO	22118
St. Joseph	US	39.75	-94.82	MO	22126
St. Louis	US	38.63	-90.24	MO	22127
St. Peters	US	38.77	-90.6	MO	22131
Springfield	US	37.19	-93.28	MO	22171
University City	US	38.66	-90.33	MO	22227
Billings	US	45.79	-108.53	MT	22319
Great Falls	US	47.5	-111.29	MT	22372
Missoula	US	46.86	-114	MT	22414
Grand Island	US	40.92	-98.36	NE	22677
Lincoln	US	40.81	-96.68	NE	22753
Omaha	US	41.26	-96.01	NE	22834
Carson City	US	39.14	-119.74	NV	23013
Henderson	US	36.03	-115	NV	23026
Las Vegas	US	36.2	-115.22	NV	23032
North Las Vegas	US	36.26	-115.14	NV	23042
Paradise	US	36.08	-115.13	NV	23045
Reno	US	39.53	-119.82	NV	23046
Sparks	US	39.54	-119.73	NV	23050
Spring Valley	US	36.1	-115.24	NV	23052
Sunrise Manor	US	36.18	-115.04	NV	23054
Manchester	US	42.98	-71.44	NH	23099
Nashua	US	42.74	-71.49	NH	23103
Atlantic City	US	39.37	-74.45	NJ	23135
Bayonne	US	40.66	-74.11	NJ	23146
Bloomfield	US	40.81	-74.18	NJ	23162
Brick Township	US	40.05	-74.11	NJ	23172
Camden	US	39.93	-75.1	NJ	23184
Cherry Hill	US	39.9	-74.99	NJ	23195
Clifton	US	40.86	-74.15	NJ	23205
East Brunswick	US	40.42	-74.41	NJ	23225
East Orange	US	40.76	-74.21	NJ	23229
Edison	US	40.52	-74.36	NJ	23234
Elizabeth	US	40.66	-74.19	NJ	23236
Irvington	US	40.72	-74.23	NJ	23316
Jersey City	US	40.71	-74.06	NJ	23320
Montclair	US	40.82	-74.21	NJ	23390
Newark	US	40.72	-74.17	NJ	23406
New Brunswick	US	40.48	-74.44	NJ	23407
North Bergen	US	40.79	-74.02	NJ	23415
Parsippany-Troy Hills Township	US	40.85	-74.42	NJ	23447
Passaic	US	40.85	-74.12	NJ	23448
Paterson	US	40.91	-74.16	NJ	23449
Perth Amboy	US	40.52	-74.27	NJ	23459
Plainfield	US	40.61	-74.41	NJ	23466
Teaneck	US	40.88	-74.01	NJ	23557
Trenton	US	40.22	-74.76	NJ	23563
Union	US	40.69	-74.26	NJ	23567
Union City	US	40.76	-74.03	NJ	23569
Vineland	US	39.46	-74.99	NJ	23577
Wayne	US	40.94	-74.24	NJ	23586
West New York	US	40.78	-74	NJ	23596
West Orange	US	40.79	-74.26	NJ	23597
Albuquerque	US	35.11	-106.62	NM	23626
Las Cruces	US	32.33	-106.75	NM	23701
Roswell	US	33.37	-104.52	NM	23748
Santa Fe	US	35.67	-105.95	NM	23762
Albany	US	42.66	-73.79	NY	23803
Binghamton	US	42.1	-75.9	NY	23874
Brentwood	US	40.78	-73.24	NY	23884
Buffalo	US	42.88	-78.85	NY	23904
Cheektowaga	US	42.9	-78.75	NY	23948
Freeport	US	40.65	-73.58	NY	24094
Hempstead	US	40.7	-73.61	NY	24160
Hicksville	US	40.76	-73.52	NY	24170
Irondequoit	US	43.21	-77.57	NY	24203
Levittown	US	40.72	-73.51	NY	24253
Mount Vernon	US	40.91	-73.82	NY	24355
New Rochelle	US	40.92	-73.77	NY	24381
New York	US	40.66	-73.94	NY	24384
Niagara Falls	US	43.09	-79.01	NY	24386
Rochester	US	43.16	-77.61	NY	24534
Rome	US	43.22	-75.48	NY	24538
Schenectady	US	42.8	-73.92	NY	24574
Syracuse	US	43.04	-76.14	NY	24644
South Tonawanda	US	42.98	-78.87	NY	24657
Troy	US	42.73	-73.67	NY	24660
Utica	US	43.09	-75.22	NY	24674
West Babylon	US	40.71	-73.35	NY	24715
West Seneca	US	42.83	-78.75	NY	24737
White Plains	US	41.02	-73.75	NY	24742
Yonkers	US	40.94	-73.86	NY	24760
Asheville	US	35.57	-82.54	NC	24781
Burlington	US	36.08	-79.44	NC	24840
Cary	US	35.78	-78.79	NC	24854
Chapel Hill	US	35.92	-79.04	NC	24864
Charlotte	US	35.19	-80.83	NC	24865
Durham	US	35.98	-78.91	NC	24909
Fayetteville	US	35.07	-78.89	NC	24946
Gastonia	US	35.25	-81.17	NC	24966
Goldsboro	US	35.37	-77.97	NC	24973
Greensboro	US	36.07	-79.82	NC	24981
Greenville	US	35.59	-77.37	NC	24982
High Point	US	35.98	-79.99	NC	25007
Raleigh	US	35.82	-78.65	NC	25190
Rocky Mount	US	35.95	-77.81	NC	25211
Wilmington	US	34.21	-77.91	NC	25359
Winston-Salem	US	36.1	-80.26	NC	25365
Bismarck	US	46.8	-100.76	ND	25412
Fargo	US	46.87	-96.81	ND	25484
Grand Forks	US	47.91	-97.07	ND	25518
Akron	US	41.08	-81.52	OH	25759
Boardman	US	41.03	-80.66	OH	25849
Canton	US	40.81	-81.37	OH	25904
Cincinnati	US	39.13	-84.5	OH	25940
Cleveland	US	41.47	-81.67	OH	25947
Cleveland Heights	US	41.5	-81.56	OH	25948
Columbus	US	39.98	-82.98	OH	25959
Cuyahoga Falls	US	41.16	-81.52	OH	25983
Dayton	US	39.77	-84.19	OH	25990
Elyria	US	41.37	-82.1	OH	26032
Euclid	US	41.59	-81.51	OH	26036
Fairfield	US	39.33	-84.54	OH	26040
Hamilton	US	39.39	-84.56	OH	26132
Huber Heights	US	39.85	-84.11	OH	26172
Kettering	US	39.69	-84.15	OH	26202
Lakewood	US	41.48	-81.8	OH	26219
Lima	US	40.74	-84.11	OH	26236
Lorain	US	41.44	-82.18	OH	26251
Mansfield	US	40.76	-82.52	OH	26287
Mentor	US	41.69	-81.33	OH	26313
Middletown	US	39.5	-84.37	OH	26322
Newark	US	40.06	-82.42	OH	26387
Parma	US	41.38	-81.72	OH	26480
Springfield	US	39.92	-83.79	OH	26640
Toledo	US	41.66	-83.58	OH	26679
Warren	US	41.23	-80.81	OH	26723
Youngstown	US	41.09	-80.64	OH	26800
Broken Arrow	US	36.03	-95.78	OK	26868
Edmond	US	35.67	-97.41	OK	26970
Enid	US	36.4	-97.86	OK	26978
Lawton	US	34.6	-98.42	OK	27110
Midwest City	US	35.46	-97.36	OK	27161
Moore	US	35.32	-97.47	OK	27167
Muskogee	US	35.74	-95.35	OK	27177
Norman	US	35.22	-97.34	OK	27191
Oklahoma City	US	35.46	-97.51	OK	27206
Tulsa	US	36.12	-95.91	OK	27342
Beaverton	US	45.47	-122.81	OR	27423
Corvallis	US	44.57	-123.27	OR	27453
Eugene	US	44.05	-123.11	OR	27476
Gresham	US	45.5	-122.43	OR	27498
Hillsboro	US	45.52	-122.93	OR	27512
Medford	US	42.33	-122.85	OR	27554
Portland	US	45.53	-122.65	OR	27596
Salem	US	44.92	-123.02	OR	27621
Springfield	US	44.05	-122.97	OR	27639
Allentown	US	40.59	-75.47	PA	27699
Altoona	US	40.5	-78.4	PA	27701
Bethlehem	US	40.62	-75.36	PA	27772
Chester	US	39.84	-75.37	PA	27865
Erie	US	42.12	-80.08	PA	28036
Harrisburg	US	40.27	-76.88	PA	28153
Lancaster	US	40.04	-76.3	PA	28251
Levittown	US	40.15	-74.85	PA	28282
Penn Hills	US	40.47	-79.82	PA	28550
Philadelphia	US	40	-75.13	PA	28560
Pittsburgh	US	40.43	-79.97	PA	28568
Reading	US	40.33	-75.92	PA	28611
Scranton	US	41.4	-75.66	PA	28685
State College	US	40.79	-77.85	PA	28767
Wilkes-Barre	US	41.24	-75.87	PA	28935
York	US	39.96	-76.73	PA	28975
Cranston	US	41.76	-71.48	RI	28989
East Providence	US	41.8	-71.35	RI	28991
Pawtucket	US	41.87	-71.37	RI	29002
Providence	US	41.82	-71.41	RI	29003
Warwick	US	41.7	-71.42	RI	29007
Woonsocket	US	41.99	-71.5	RI	29010
Charleston	US	32.78	-79.99	SC	29057
Columbia	US	34.03	-80.88	SC	29069
Greenville	US	34.83	-82.37	SC	29124
North Charleston	US	32.9	-80.04	SC	29219
Rock Hill	US	34.93	-81.02	SC	29262
Spartanburg	US	34.94	-81.92	SC	29296
Sumter	US	33.94	-80.39	SC	29307
Rapid City	US	44.07	-103.23	SD	29596
Sioux Falls	US	43.54	-96.73	SD	29618
Chattanooga	US	35.06	-85.25	TN	29744
Clarksville	US	36.56	-87.34	TN	29747
Jackson	US	35.63	-88.82	TN	29855
Johnson City	US	36.33	-82.36	TN	29860
Knoxville	US	35.97	-83.94	TN	29868
Memphis	US	35.1	-90	TN	29906
Murfreesboro	US	35.85	-86.39	TN	29928
Nashville	US	36.17	-86.78	TN	29929
Abilene	US	32.45	-99.73	TX	30062
Amarillo	US	35.2	-101.81	TX	30083
Arlington	US	32.69	-97.12	TX	30105
Austin	US	30.3	-97.75	TX	30113
Baytown	US	29.74	-94.96	TX	30139
Beaumont	US	30.08	-94.14	TX	30143
Bedford	US	32.84	-97.13	TX	30145
Brownsville	US	25.92	-97.48	TX	30205
Bryan	US	30.66	-96.36	TX	30209
Carrollton	US	32.98	-96.89	TX	30247
College Station	US	30.6	-96.31	TX	30291
Corpus Christi	US	27.7	-97.29	TX	30312
Dallas	US	32.79	-96.76	TX	30343
Denton	US	33.21	-97.13	TX	30358
El Paso	US	31.84	-106.43	TX	30411
Euless	US	32.84	-97.07	TX	30421
Fort Worth	US	32.75	-97.33	TX	30454
Galveston	US	29.22	-94.89	TX	30472
Garland	US	32.91	-96.62	TX	30477
Grand Prairie	US	32.69	-97.01	TX	30505
Harlingen	US	26.19	-97.68	TX	30536
Houston	US	29.76	-95.38	TX	30578
Irving	US	32.85	-96.96	TX	30603
Killeen	US	31.09	-97.71	TX	30642
Kingwood	US	30.05	-95.18	TX	30645
Laredo	US	27.53	-99.48	TX	30691
Lewisville	US	33.04	-96.98	TX	30710
Longview	US	32.51	-94.76	TX	30732
Lubbock	US	33.57	-101.87	TX	30743
McAllen	US	26.21	-98.23	TX	30753
Mesquite	US	32.76	-96.59	TX	30797
Midland	US	32.02	-102.1	TX	30800
North Richland Hills	US	32.86	-97.21	TX	30878
Odessa	US	31.87	-102.34	TX	30893
Pasadena	US	29.66	-95.15	TX	30926
Plano	US	33.04	-96.74	TX	30958
Port Arthur	US	29.82	-93.93	TX	30968
Richardson	US	32.97	-96.7	TX	31016
San Angelo	US	31.44	-100.45	TX	31073
San Antonio	US	29.45	-98.5	TX	31074
Temple	US	31.09	-97.36	TX	31193
Texas City	US	29.4	-94.95	TX	31198
Tyler	US	32.32	-95.3	TX	31235
Victoria	US	28.82	-96.98	TX	31252
Waco	US	31.56	-97.18	TX	31255
Wichita Falls	US	33.89	-98.51	TX	31299
Layton	US	41.07	-111.95	UT	31449
Ogden	US	41.22	-111.96	UT	31500
Orem	US	40.29	-111.69	UT	31505
Provo	US	40.24	-111.64	UT	31520
Salt Lake City	US	40.77	-111.92	UT	31536
Sandy	US	40.56	-111.85	UT	31537
Taylorsville-Bennion	US	40.65	-111.94	UT	31560
West Jordan	US	40.59	-111.99	UT	31582
West Valley City	US	40.69	-112	UT	31584
Burlington	US	44.48	-73.22	VT	31602
Alexandria	US	38.82	-77.08	VA	31664
Annandale	US	38.83	-77.21	VA	31667
Arlington	US	38.87	-77.1	VA	31671
Burke	US	38.78	-77.27	VA	31705
Charlottesville	US	38.03	-78.48	VA	31716
Chesapeake	US	36.67	-76.3	VA	31721
Dale City	US	38.65	-77.34	VA	31750
Danville	US	36.58	-79.4	VA	31753
Hampton	US	37.04	-76.29	VA	31812
Lynchburg	US	37.4	-79.19	VA	31858
McLean	US	38.93	-77.17	VA	31860
Newport News	US	37.07	-76.51	VA	31888
Norfolk	US	36.92	-76.24	VA	31891
Petersburg	US	37.2	-77.39	VA	31905
Portsmouth	US	36.85	-76.35	VA	31911
Reston	US	38.95	-77.34	VA	31920
Richmond	US	37.53	-77.47	VA	31923
Roanoke	US	37.27	-79.95	VA	31926
Suffolk	US	36.7	-76.63	VA	31958
Tuckahoe	US	37.58	-77.58	VA	31971
Virginia Beach	US	36.73	-76.04	VA	31983
Bellevue	US	47.6	-122.15	WA	32021
Bellingham	US	48.74	-122.46	WA	32022
Bremerton	US	47.54	-122.7	WA	32030
East Hill-Meridian	US	47.38	-122.17	WA	32089
Everett	US	47.96	-122.19	WA	32110
Federal Way	US	47.31	-122.34	WA	32119
Kennewick	US	46.2	-119.17	WA	32170
Kent	US	47.39	-122.23	WA	32171
Kirkland	US	47.68	-122.19	WA	32175
Lakewood	US	47.16	-122.53	WA	32190
Renton	US	47.48	-122.19	WA	32302
Seattle	US	47.62	-122.35	WA	32324
Spokane	US	47.67	-117.41	WA	32349
Tacoma	US	47.25	-122.45	WA	32366
Vancouver	US	45.63	-122.64	WA	32387
Yakima	US	46.59	-120.52	WA	32427
Charleston	US	38.35	-81.63	WV	32479
Huntington	US	38.41	-82.43	WV	32554
Appleton	US	44.26	-88.39	WI	32724
Eau Claire	US	44.82	-91.49	WI	32870
Fond du Lac	US	43.77	-88.44	WI	32901
Green Bay	US	44.52	-87.98	WI	32932
Janesville	US	42.68	-89.01	WI	32969
Kenosha	US	42.58	-87.85	WI	32979
La Crosse	US	43.82	-91.23	WI	32990
Madison	US	43.07	-89.38	WI	33023
Milwaukee	US	43.06	-87.96	WI	33057
Oshkosh	US	44.01	-88.55	WI	33122
Racine	US	42.72	-87.8	WI	33163
Sheboygan	US	43.74	-87.73	WI	33206
Waukesha	US	43.01	-88.23	WI	33279
Wauwatosa	US	43.06	-88.03	WI	33286
West Allis	US	43	-88.03	WI	33289
Casper	US	42.83	-106.32	WY	33340
Cheyenne	US	41.14	-104.79	WY	33341
Arecibo	RQ	18.45	-66.73	--	33446
Bayamon	RQ	18.38	-66.16	--	33456
Caguas	RQ	18.23	-66.03	--	33466
Carolina	RQ	18.4	-65.98	--	33475
Guaynabo	RQ	18.38	-66.11	--	33517
Mayaguez	RQ	18.2	-67.14	--	33568
Ponce	RQ	17.98	-66.6	--	33599
San Juan	RQ	18.4	-66.06	--	33629
Trujillo Alto	RQ	18.36	-66.01	--	33644
Andorra la Vella	AN	42.52	1.53	--	001eb
Baghlan	AF	36.13	68.69	--	50002
Herat	AF	34.35	62.19	--	50005
Jalalabad	AF	34.43	70.44	--	50006
Kabul	AF	34.53	69.16	--	50007
Maimana	AF	35.91	64.78	--	50008
Mazar-e Sharif	AF	36.69	67.08	--	50009
Qandahar	AF	31.61	65.7	--	50010
Qonduz	AF	36.72	68.85	--	50011
Benguela	AO	-12.56	13.36	--	50013
Huambo	AO	-12.74	15.69	--	50014
Lobito	AO	-12.34	13.51	--	50015
Luanda	AO	-8.8	13.23	--	50016
Lubango	AO	-14.89	13.5	--	50017
Namibe	AO	-15.16	12.14	--	50019
Durres	AL	41.31	19.44	--	50021
Elbasan	AL	41.1	20.08	--	50022
Korce	AL	40.62	20.75	--	50026
Shkoder	AL	42.06	19.51	--	50029
Tirana	AL	41.32	19.82	--	50031
Vlore	AL	40.44	19.49	--	50032
Abu Dhabi	TC	24.47	54.37	--	50036
Al 'Ayn	TC	24.22	55.76	--	50037
Ash Shariqah	TC	25.34	55.4	--	50038
Dubayy	TC	25.26	55.31	--	50039
Almirante Brown	AR	-34.79	-58.38	--	50041
Avellaneda	AR	-34.64	-58.38	--	50048
Azul	AR	-36.78	-59.85	--	50051
Bahia Blanca	AR	-38.71	-62.28	--	50052
Banda del Rio Sali	AR	-26.83	-65.16	--	50054
Barranqueras	AR	-27.48	-58.93	--	50056
Berazategui	AR	-34.76	-58.21	--	50061
Berisso	AR	-34.86	-57.88	--	50062
Buenos Aires	AR	-34.61	-58.46	--	50064
Campana	AR	-34.16	-58.95	--	50067
Caseros	AR	-34.6	-58.54	--	50074
Catamarca	AR	-28.46	-65.78	--	50076
Chimbas	AR	-31.48	-68.53	--	50086
Chivilcoy	AR	-34.88	-60.01	--	50087
Cipoletti	AR	-38.93	-67.98	--	50089
Cipolletti	AR	-38.93	-67.98	--	50090
Clorinda	AR	-25.28	-57.71	--	50091
Comodoro Rivadavia	AR	-45.85	-67.47	--	50094
Concepcion	AR	-27.33	-65.58	--	50095
Concordia	AR	-31.39	-58.03	--	50096
Cordoba	AR	-31.39	-64.18	--	50097
Corrientes	AR	-27.47	-58.83	--	50103
Ensenada	AR	-34.85	-57.91	--	50115
Escobar	AR	-34.35	-58.78	--	50116
Esteban Echeverria	AR	-34.83	-58.46	--	50121
Florencio Varela	AR	-34.81	-58.28	--	50124
Formosa	AR	-26.18	-58.18	--	50126
General Pico	AR	-35.66	-63.73	--	50137
General Roca	AR	-39.03	-67.58	--	50138
General Rodriguez	AR	-34.6	-58.95	--	50139
General San Martin	AR	-34.56	-58.53	--	50140
General Sarmiento	AR	-34.54	-58.71	--	50141
Godoy Cruz	AR	-32.91	-68.83	--	50143
Goya	AR	-29.13	-59.26	--	50144
Gualeguaychu	AR	-33.01	-58.51	--	50147
Guaymallen - Northeast Guaymallen	AR	-32.88	68.77	--	50148
Guaymallen	AR	-32.89	-68.78	--	50149
Jujuy	AR	-24.18	-65.29	--	50158
Junin	AR	-34.58	-60.95	--	50159
La Banda	AR	-27.73	-64.25	--	50160
La Plata	AR	-34.93	-57.94	--	50165
La Rioja	AR	-29.43	-66.84	--	50167
Lanus	AR	-34.71	-58.39	--	50171
Las Heras	AR	-32.84	-68.81	--	50174
Libertador General San Martin	AR	-23.8	-64.79	--	50179
Lomas de Zamora	AR	-34.76	-58.39	--	50183
Lujan	AR	-34.56	-59.11	--	50186
Maipu	AR	-32.96	-68.78	--	50189
Mar del Plata	AR	-38	-57.54	--	50191
Mendoza	AR	-32.88	-68.81	--	50194
Mercedes	AR	-34.64	-59.44	--	50195
Merlo	AR	-34.66	-58.75	--	50198
Moreno	AR	-34.64	-58.79	--	50204
Moron	AR	-34.64	-58.61	--	50205
Necochea	AR	-38.54	-58.75	--	50207
Neuquen	AR	-38.95	-68.06	--	50208
Obera	AR	-27.48	-55.13	--	50211
Olavarria	AR	-36.89	-60.28	--	50212
Palpala	AR	-24.25	-65.2	--	50216
Parana	AR	-31.73	-60.53	--	50217
Pergamino	AR	-33.89	-60.57	--	50221
Pilar	AR	-34.44	-58.89	--	50226
Posadas	AR	-27.38	-55.88	--	50231
Presidencia Roque Saenz Pena	AR	-26.78	-60.44	--	50232
Punta Alta	AR	-38.88	-62.08	--	50235
Quilmes	AR	-34.73	-58.26	--	50237
Rafaela	AR	-31.26	-61.48	--	50239
Reconquista	AR	-29.14	-59.64	--	50243
Resistencia	AR	-27.44	-58.98	--	50244
Rio Cuarto	AR	-33.13	-64.34	--	50248
Rio Gallegos	AR	-51.63	-69.21	--	50249
Rio Grande	AR	-53.79	-67.7	--	50250
Rio Tercero	AR	-32.18	-64.09	--	50252
Rivadavia	AR	-31.54	-68.61	--	50253
Rosario	AR	-32.95	-60.66	--	50256
Salta	AR	-24.78	-65.41	--	50263
San Carlos de Bariloche	AR	-41.14	-71.29	--	50268
San Fernando	AR	-34.43	-58.56	--	50271
San Fernando del Valle de Catamarca	AR	-28.46	-65.78	--	50272
San Francisco	AR	-31.43	-62.08	--	50273
San Isidro	AR	-34.44	-58.49	--	50274
San Juan	AR	-31.53	-68.51	--	50278
San Justo	AR	-34.66	-58.54	--	50279
San Lorenzo	AR	-32.74	-60.73	--	50281
San Luis	AR	-33.29	-66.34	--	50282
San Martin	AR	-33.06	-68.46	--	50283
San Miguel de Tucuman	AR	-26.81	-65.21	--	50285
San Nicolas	AR	-33.31	-60.21	--	50287
San Nicolas de los Arroyos	AR	-33.33	-60.21	--	50288
San Pedro	AR	-24.23	-64.86	--	50290
San Rafael	AR	-34.6	-68.33	--	50291
San Ramon de la Nueva Oran	AR	-23.13	-64.33	--	50292
San Salvador de Jujuy	AR	-24.18	-65.29	--	50293
San Vicente	AR	-35.01	-58.41	--	50294
Santa Fe	AR	-31.63	-60.7	--	50296
Santa Rosa	AR	-36.61	-64.28	--	50298
Santiago del Estero	AR	-27.78	-64.26	--	50299
Santo Tome	AR	-31.66	-60.76	--	50300
Tandil	AR	-37.31	-59.14	--	50306
Tartagal	AR	-22.53	-63.81	--	50307
Tigre	AR	-34.41	-58.56	--	50308
Trelew	AR	-43.24	-65.29	--	50310
Tres Arroyos	AR	-38.38	-60.28	--	50312
Tucuman	AR	-26.85	-65.13	--	50313
Venado Tuerto	AR	-33.74	-61.96	--	50318
Vicente Lopez	AR	-34.53	-58.46	--	50321
Viedma	AR	-40.79	-63	--	50323
Villa Carlos Paz	AR	-31.39	-64.51	--	50326
Villa Constitucion	AR	-33.23	-60.33	--	50328
Villa Gobernador Galvez	AR	-33.03	-60.63	--	50331
Villa Krause	AR	-31.56	-68.53	--	50332
Villa Maria	AR	-32.41	-63.25	--	50333
Villa Mercedes	AR	-33.66	-65.46	--	50334
Villa Nueva	AR	-32.89	-68.78	--	50335
Zarate	AR	-34.09	-59.03	--	50342
Abovyan	AM	40.24	44.58	--	50343
Gyumri	AM	40.79	43.83	--	50350
Hrazdan	AM	40.49	44.76	--	50352
Vanadzor	AM	40.79	44.5	--	50360
Yejmiadzin	AM	40.16	44.29	--	50361
Eerevan	AM	40.18	44.49	--	50362
Adelaide	AS	-34.93	138.59	SA	50364
Albury	AS	-36.06	146.9	NS	50366
Auburn	AS	-33.85	151.03	NS	50370
Ballarat	AS	-37.56	143.85	VI	50372
Bankstown	AS	-33.92	151.03	NS	50374
Barwon	AS	-38.46	143.75	VI	50375
Bendigo	AS	-36.78	144.27	VI	50378
Berwick	AS	-38.03	145.35	VI	50379
Blacktown	AS	-33.77	150.9	NS	50380
Box Hill	AS	-37.82	145.12	VI	50381
Brisbane	AS	-27.53	153.02	QL	50383
Broadmeadows	AS	-37.68	144.92	VI	50384
Bundaberg	AS	-24.87	152.33	QL	50387
Cairns	AS	-16.89	145.73	QL	50391
Camberwell	AS	-37.83	145.06	VI	50393
Campbelltown	AS	-34.06	150.82	NS	50394
Canberra	AS	-35.29	149.13	AC	50396
Canterbury	AS	-33.91	151.11	NS	50397
Caulfield	AS	-37.88	145.04	VI	50399
Central Coast	AS	-33.42	151.39	NS	50400
Coburg	AS	-37.74	144.96	VI	50402
Dandenong	AS	-37.98	145.21	VI	50408
Darwin	AS	-12.43	130.85	NT	50409
Doncaster	AS	-37.78	145.13	VI	50412
Enfield	AS	-34.86	138.59	SA	50416
Essendon	AS	-37.75	144.9	VI	50417
Fairfield	AS	-33.86	150.94	NS	50418
Footscray	AS	-37.79	144.89	VI	50419
Frankston	AS	-38.16	145.13	VI	50420
Geelong	AS	-38.13	144.34	VI	50423
Gold Coast	AS	-28.09	153.44	QL	50426
Gosford	AS	-33.42	151.34	NS	50427
Gosnells	AS	-32.07	115.99	WA	50428
Heidelberg	AS	-37.75	145.06	VI	50433
Hobart	AS	-42.84	147.29	TS	50436
Hobart City	AS	-42.83	147.34	TS	50437
Holroyd	AS	-33	150	VI	50438
Hurstville	AS	-33.96	151.1	NS	50440
Ipswich	AS	-27.62	152.75	QL	50441
Keilor	AS	-37.71	144.82	VI	50446
Knox	AS	-37.88	145.3	VI	50448
Launceston	AS	-41.45	147.15	TS	50450
Leichhardt	AS	-33.89	151.15	NS	50451
Liverpool	AS	-33.93	150.91	NS	50455
Mackay	AS	-21.15	149.18	QL	50456
Maitland	AS	-32.73	151.55	NS	50457
Marion	AS	-35	138.55	VI	50460
Marrickville	AS	-33.91	151.15	NS	50461
Melbourne	AS	-37.88	145.03	VI	50463
Melbourne City	AS	-37.82	145	VI	50464
Melville	AS	-32.04	115.79	WA	50466
Mitcham	AS	-34.98	138.61	SA	50468
Moorabbin	AS	-37.93	145.03	VI	50471
Newcastle	AS	-32.93	151.78	NS	50482
Noarlunga	AS	-35.18	138.5	SA	50484
North Sydney	AS	-33.83	151.19	NS	50485
Northcote	AS	-37.76	145	VI	50486
Nunawading	AS	-37.81	145.16	VI	50487
Oakleigh	AS	-37.89	145.09	VI	50488
Parramatta	AS	-33.81	151	NS	50491
Penrith	AS	-33.75	150.75	NS	50492
Perth	AS	-31.93	115.76	WA	50493
Perth City	AS	-31.94	115.86	WA	50494
Port Adelaide	AS	-34.68	138.5	SA	50495
Preston	AS	-37.75	145.01	VI	50502
Randwick	AS	-33.91	151.23	NS	50504
Redcliffe	AS	-27.23	153.09	QL	50506
Rockdale	AS	-33.95	151.14	NS	50507
Rockhampton	AS	-23.37	150.51	QL	50508
Ryde	AS	-33.81	151.09	NS	50511
Salisbury	AS	-34.76	138.63	QL	50513
Southport	AS	-27.94	153.4	QL	50519
Springvale	AS	-37.95	145.15	VI	50520
St Kilda	AS	-37.86	144.98	VI	50521
Stirling	AS	-31.88	115.8	SA	50522
Sunshine	AS	-37.78	144.83	VI	50524
Sunshine Coast	AS	-26.4	153.1	QL	50525
Sydney	AS	-33.96	151.12	NS	50526
Tea Tree Gully	AS	-34.81	138.73	SA	50529
Toowoomba	AS	-27.58	151.9	QL	50531
Townsville	AS	-19.26	146.81	QL	50532
Unley	AS	-34.94	138.58	SA	50534
Wagga Wagga	AS	-35.12	147.37	NS	50535
Wanneroo	AS	-31.74	115.8	WA	50537
Waverley	AS	-33.89	151.25	VI	50540
Willoughby	AS	-33.79	151.19	NS	50542
Wollongong	AS	-34.42	150.89	NS	50544
Woodville	AS	-34.88	138.53	SA	50545
Woollahra	AS	-33.89	151.23	NS	50546
Dornbirn	AU	47.4	9.74	--	50558
Floridsdorf	AU	48.25	16.39	--	50564
Graz	AU	47.07	15.44	--	50566
Hernals	AU	48.21	16.33	--	50570
Hietzing	AU	48.18	16.3	--	50571
Innsbruck	AU	47.26	11.39	--	50574
Klagenfurt	AU	46.63	14.31	--	50577
Liesing	AU	48.13	16.28	--	50586
Linz an der Donau	AU	48.3	14.28	--	50587
Meidling	AU	48.18	16.33	--	50590
Ottakring	AU	48.2	16.32	--	50594
Salzburg	AU	47.79	13.04	--	50599
Sankt Polten	AU	48.2	15.61	--	50600
Simmering	AU	48.17	16.41	--	50604
Steyr	AU	48.06	14.41	--	50606
Villach	AU	46.62	13.84	--	50612
Wels	AU	48.15	14.01	--	50617
Vienna	AU	48.2	16.37	--	50618
Ali Bayramli	AJ	39.91	48.93	--	50628
Baku	AJ	40.37	49.86	--	50631
Ganca	AJ	40.68	46.36	--	50643
Kirovskiy	AJ	40.43	49.85	--	50648
Mingacevir	AJ	40.75	47.04	--	50655
Naxcivan	AJ	39.2	45.39	--	50656
Saki	AJ	41.19	47.2	--	50662
Seki	AJ	41.2	47.2	--	50664
Sumqayit	AJ	40.59	49.63	--	50670
Bujumbura	BY	-3.38	29.36	--	50679
Gitega	BY	-3.42	29.92	--	50680
Aalst	BE	50.93	4.01	--	50681
Anderlecht	BE	50.83	4.29	--	50690
Antwerp	BE	51.21	4.4	--	50692
Berlaar	BE	51.11	4.65	--	50708
Beveren	BE	51.2	4.25	--	50711
Bruges	BE	51.19	3.22	--	50731
Brussels	BE	50.85	4.35	--	50732
Charleroi	BE	50.4	4.42	--	50734
Dendermonde	BE	51.01	4.09	--	50746
Elsene	BE	50.83	4.36	--	50760
Etterbeek	BE	50.81	4.38	--	50765
Genk	BE	50.95	5.5	--	50782
Ghent	BE	51.04	3.75	--	50783
Hasselt	BE	50.93	5.33	--	50797
Jette	BE	50.86	4.33	--	50818
Courtrai	BE	50.82	3.27	--	50831
La Louviere	BE	50.47	4.19	--	50835
Louvain	BE	50.88	4.71	--	50845
Liege	BE	50.62	5.57	--	50848
Malines	BE	51.01	4.46	--	50864
Mons	BE	50.46	3.94	--	50874
Mouscron	BE	50.74	3.23	--	50878
Namur	BE	50.46	4.86	--	50879
Ostend	BE	51.23	2.92	--	50886
Roeselare	BE	50.94	3.13	--	50909
Schaerbeek	BE	50.85	4.38	--	50917
Seraing	BE	50.6	5.5	--	50921
Sint-Gillis	BE	50.81	4.33	--	50924
Sint-Jans-Molenbeek	BE	50.85	4.31	--	50926
Sint-Niklaas	BE	51.17	4.13	--	50929
Tournai	BE	50.61	3.38	--	50948
Ukkel	BE	50.79	4.33	--	50952
Verviers	BE	50.58	5.85	--	50953
Vorst	BE	50.79	4.31	--	50958
Woluwe-Saint-Lambert	BE	50.85	4.4	--	50975
Woluwe-Saint-Pierre	BE	50.83	4.41	--	50976
Abomey	BN	7.18	1.99	--	50992
Bohicon	BN	7.18	2.08	--	50993
Cotonou	BN	6.35	2.45	--	50994
Djougou	BN	9.71	1.67	--	50995
Kandi	BN	11.14	2.94	--	50996
Lokossa	BN	6.61	1.72	--	50997
Natitingou	BN	10.31	1.39	--	50998
Ouidah	BN	6.36	2.09	--	50999
Parakou	BN	9.34	2.62	--	51000
Porto-Novo	BN	6.48	2.65	--	51001
Bobo Dioulasso	UV	11.18	-4.28	--	51004
Koudougou	UV	12.25	-2.36	--	51007
Ouagadougou	UV	12.37	-1.52	--	51008
Ouahigouya	UV	13.57	-2.41	--	51009
Barisal	BG	22.7	90.37	--	51012
Bogra	BG	24.85	89.37	--	51013
Brahmanbaria	BG	23.83	91.25	--	51014
Chandpur	BG	23.23	90.65	--	51015
Chittagong	BG	22.33	91.83	--	51016
Chuadanga	BG	23.64	88.68	--	51017
Comilla	BG	23.45	91.18	--	51018
Dacca	BG	23.71	90.41	--	51019
Dinajpur	BG	25.62	88.63	--	51020
Faridpur	BG	23.6	89.85	--	51021
Gulshan	BG	23.75	90.38	--	51022
Jamalpur	BG	24.92	89.93	--	51023
Jessore	BG	23.16	89.21	--	51024
Khulna	BG	22.85	89.55	--	51025
Kishorganj	BG	24.42	90.77	--	51026
Kushtia	BG	23.93	89	--	51027
Madaripur	BG	23.17	90.2	--	51028
Mirpur	BG	23.78	90.25	--	51029
Mymensingh	BG	24.74	90.4	--	51030
Naogaon	BG	24.81	88.94	--	51031
Narayanganj	BG	23.62	90.5	--	51032
Narsinghdi	BG	23.91	90.71	--	51033
Nawabganj	BG	24.58	88.27	--	51034
Noakhali	BG	22.8	91.09	--	51035
Pabna	BG	24.01	89.24	--	51036
Patuakhali	BG	22.35	90.24	--	51037
Rajshahi	BG	24.37	88.59	--	51038
Rangpur	BG	25.76	89.24	--	51039
Saidpur	BG	25.79	88.89	--	51040
Satkhira	BG	22.71	89.08	--	51041
Sherpur	BG	25.02	90.01	--	51042
Sirajganj	BG	24.45	89.69	--	51043
Sylhet	BG	24.88	91.87	--	51044
Tangail	BG	24.25	89.91	--	51045
Tongi	BG	23.88	90.4	--	51046
Asenovgrad	BU	42.01	24.87	--	51047
Blagoevgrad	BU	42.01	23.08	--	51052
Burgas	BU	42.5	27.47	--	51053
Dimitrovgrad	BU	42.04	25.59	--	51056
Dobrich	BU	43.56	27.83	--	51057
Dupnitsa	BU	42.25	23.12	--	51058
Gabrovo	BU	42.87	25.31	--	51060
Kazanlak	BU	42.61	25.39	--	51067
Kazanluk	BU	42.6	25.4	--	51068
Khaskovo	BU	41.93	25.57	--	51070
Kjustendil	BU	42.28	22.68	--	51071
Kurdzhali	BU	41.63	25.38	--	51073
Kyustendil	BU	42.28	22.68	--	51074
Lovech	BU	43.12	24.72	--	51077
Montana	BU	43.38	23.22	--	51079
Pazardzhik	BU	42.17	24.34	--	51085
Pazardzik	BU	42.2	24.33	--	51086
Pernik	BU	42.6	23.04	--	51087
Pleven	BU	43.41	24.63	--	51090
Plovdiv	BU	42.16	24.75	--	51091
Razgrad	BU	43.51	26.52	--	51096
Ruse	BU	43.83	26	--	51098
Shumen	BU	43.27	26.94	--	51102
Silistra	BU	44.09	27.25	--	51103
Sliven	BU	42.65	26.32	--	51104
Sofia	BU	42.69	23.32	--	51106
Stara Zagora	BU	42.43	25.64	--	51107
Turgovishte	BU	43.23	26.58	--	51111
Varna	BU	43.21	27.9	--	51113
Veliko Turnovo	BU	43.07	25.65	--	51114
Vidin	BU	43.97	22.83	--	51116
Vraca	BU	43.2	23.55	--	51117
Vratsa	BU	43.21	23.55	--	51118
Yambol	BU	42.46	26.48	--	51119
Al Muharraq	BA	26.26	50.61	--	51120
Manama	BA	26.22	50.58	--	51121
Jidd Hafs	BA	26.21	50.53	--	51122
Freeport	BF	26.55	-78.71	--	51123
Nassau	BF	25.05	-77.34	--	51124
Bihac	BK	44.82	15.87	--	51125
Brcko	BK	44.87	18.81	--	51132
Capljina	BK	43.11	17.68	--	51135
Ilidza	BK	43.83	18.31	--	51145
Jablanica	BK	43.64	17.76	--	51146
Kladanj	BK	44.23	18.66	--	51150
Mostar	BK	43.34	17.8	--	51155
Novi Grad	BK	45.1	18.31	--	51156
Sarajevo	BK	43.87	18.41	--	51160
Tesanj	BK	44.6	17.99	--	51161
Tuzla	BK	44.54	18.68	--	51164
Zenica	BK	44.21	17.9	--	51168
Baranovichi	BO	53.11	26.03	--	51172
Bobruysk	BO	53.14	29.23	--	51174
Borisov	BO	54.24	28.5	--	51175
Brest	BO	52.1	23.69	--	51177
Homyel'	BO	52.44	30.98	--	51188
Hrodna	BO	53.68	23.83	--	51189
Kalinkavichy	BO	52.13	29.31	--	51192
Kobrin	BO	52.21	24.35	--	51195
Lida	BO	53.88	25.29	--	51198
Mahilyow	BO	53.89	30.35	--	51202
Minsk	BO	53.9	27.59	--	51206
Molodechno	BO	54.31	26.84	--	51207
Mozyr'	BO	52.04	29.26	--	51209
Navapolatsk	BO	55.53	28.63	--	51211
Orsha	BO	54.51	30.41	--	51213
Pinsk	BO	52.11	26.11	--	51216
Polotsk	BO	55.48	28.78	--	51217
Rechitsa	BO	52.36	30.38	--	51220
Slutsk	BO	53.01	27.55	--	51224
Soligorsk	BO	52.79	27.53	--	51226
Svetlogorsk	BO	52.61	29.74	--	51228
Vitsyebsk	BO	55.19	30.19	--	51231
Zhlobin	BO	52.89	30.05	--	51236
Zhodino	BO	54.09	28.33	--	51237
Belize City	BH	17.5	-88.2	--	51238
Cochabamba	BL	-17.38	-66.15	--	51244
El Alto	BL	-16.36	-72.15	--	51246
Guayaramerin	BL	-10.8	-65.41	--	51247
La Paz	BL	-16.5	-68.15	--	51249
Montero	BL	-17.33	-63.24	--	51252
Oruro	BL	-17.94	-67.09	--	51253
Potosi	BL	-19.58	-65.74	--	51254
Quillacollo	BL	-17.39	-66.3	--	51257
Riberalta	BL	-10.98	-66.09	--	51258
Sacaba	BL	-17.38	-66.03	--	51260
Santa Cruz	BL	-17.79	-63.16	--	51264
Sucre	BL	-19.05	-65.26	--	51266
Tarija	BL	-21.51	-64.75	--	51267
Trinidad	BL	-14.81	-64.91	--	51268
Yacuiba	BL	-21.98	-63.68	--	51276
Abaetetuba	BR	-1.71	-48.88	--	51278
Abreu e Lima	BR	-7.91	-34.9	--	51283
Acailandia	BR	-4.94	-47.5	--	51284
Acara	BR	-1.96	-48.19	--	51286
Acarau	BR	-2.88	-40.11	--	51288
Acopiara	BR	-6.09	-39.45	--	51290
Acu	BR	-5.57	-36.9	--	51292
Afonso Claudio	BR	-20.07	-41.12	--	51298
Aguas Belas	BR	-9.11	-37.12	--	51310
Alagoinhas	BR	-12.13	-38.41	--	51324
Alegrete	BR	-29.78	-55.79	--	51329
Alenquer	BR	-1.94	-54.73	--	51331
Alfenas	BR	-21.42	-45.94	--	51334
Almirante Tamandare	BR	-25.32	-49.31	--	51341
Alta Floresta	BR	-9.87	-56.08	--	51344
Alta Floresta d'Oeste	BR	-11.96	-61.95	--	51345
Altamira	BR	-3.2	-52.2	--	51346
Alvorada	BR	-29.98	-51.08	--	51368
Americana	BR	-22.73	-47.33	--	51377
Amparo	BR	-22.7	-46.76	--	51380
Anage	BR	-14.61	-41.13	--	51383
Ananindeua	BR	-1.36	-48.37	--	51386
Anapolis	BR	-16.32	-48.95	--	51387
Andradina	BR	-20.89	-51.37	--	51395
Angra dos Reis	BR	-23	-44.31	--	51400
Aparecida de Goiania	BR	-16.82	-49.24	--	51411
Apucarana	BR	-23.55	-51.46	--	51416
Aquidauana	BR	-20.47	-55.78	--	51418
Aquiraz	BR	-3.9	-38.39	--	51419
Aracaju	BR	-10.91	-37.07	--	51421
Aracati	BR	-4.56	-37.76	--	51422
Aracatuba	BR	-21.2	-50.43	--	51424
Araci	BR	-11.33	-38.96	--	51425
Aracruz	BR	-19.82	-40.27	--	51428
Araguaina	BR	-7.19	-48.2	--	51431
Araguari	BR	-18.64	-48.18	--	51432
Araioses	BR	-2.88	-41.9	--	51434
Arame	BR	-4.88	-46	--	51435
Arapiraca	BR	-9.75	-36.66	--	51436
Arapongas	BR	-23.41	-51.42	--	51437
Ararangua	BR	-28.93	-49.48	--	51442
Araraquara	BR	-21.79	-48.17	--	51443
Araras	BR	-22.35	-47.38	--	51444
Araripina	BR	-7.57	-40.49	--	51447
Araruama	BR	-22.87	-42.34	--	51448
Araucaria	BR	-25.59	-49.41	--	51454
Araxa	BR	-19.59	-46.94	--	51455
Arcoverde	BR	-8.41	-37.05	--	51457
Ariquemes	BR	-9.91	-63.04	--	51467
Aruja	BR	-23.39	-46.32	--	51476
Assis	BR	-22.66	-50.41	--	51480
Assis Chateaubriand	BR	-24.41	-53.51	--	51481
Atalaia	BR	-9.5	-36.02	--	51484
Atibaia	BR	-23.11	-46.55	--	51486
Avare	BR	-23.09	-48.92	--	51495
Bacabal	BR	-4.29	-44.79	--	51499
Bage	BR	-31.33	-54.1	--	51502
Balneario Camboriu	BR	-26.99	-48.63	--	51508
Balsas	BR	-7.53	-46.03	--	51509
Barbacena	BR	-21.22	-43.77	--	51519
Barbalha	BR	-7.31	-39.3	--	51520
Barcarena	BR	-1.5	-48.62	--	51522
Barra	BR	-11.08	-43.14	--	51525
Barra Mansa	BR	-22.54	-44.17	--	51527
Barra do Corda	BR	-5.5	-45.24	--	51535
Barra do Garcas	BR	-15.88	-52.25	--	51536
Barra do Pirai	BR	-22.46	-43.82	--	51538
Barras	BR	-4.24	-42.29	--	51542
Barreiras	BR	-12.15	-44.98	--	51544
Barreiros	BR	-8.81	-35.18	--	51547
Barretos	BR	-20.55	-48.56	--	51548
Barueri	BR	-23.51	-46.87	--	51556
Batatais	BR	-20.89	-47.58	--	51561
Bauru	BR	-22.31	-49.06	--	51563
Bayeux	BR	-7.12	-34.93	--	51564
Bebedouro	BR	-20.94	-48.47	--	51565
Belem	BR	-1.44	-48.48	--	51571
Belford Roxo	BR	-22.76	-43.39	--	51575
Belo Horizonte	BR	-19.91	-43.93	--	51578
Belo Jardim	BR	-8.33	-36.42	--	51579
Benevides	BR	-1.36	-48.24	--	51582
Bento Goncalves	BR	-29.17	-51.51	--	51584
Betim	BR	-19.96	-44.19	--	51591
Bezerros	BR	-8.23	-35.79	--	51592
Biguacu	BR	-27.49	-48.65	--	51594
Birigui	BR	-21.28	-50.33	--	51595
Blumenau	BR	-26.91	-49.06	--	51599
Boa Viagem	BR	-5.12	-39.73	--	51604
Boa Vista	BR	2.81	-60.67	--	51605
Bocaiuva	BR	-17.1	-43.81	--	51610
Bom Conselho	BR	-9.16	-36.67	--	51613
Bom Despacho	BR	-19.73	-45.25	--	51614
Bom Jardim	BR	-4.74	-44.35	--	51615
Bom Jardim	BR	-7.79	-35.58	--	51616
Bom Jesus da Lapa	BR	-13.25	-43.41	--	51620
Botucatu	BR	-22.88	-48.44	--	51642
Braganca	BR	-1.05	-46.76	--	51645
Braganca Paulista	BR	-22.95	-46.54	--	51646
Brasilia	BR	-15.77	-47.92	--	51650
Brasilia de Minas	BR	-16.2	-44.43	--	51651
Breves	BR	-1.68	-50.48	--	51660
Brumado	BR	-14.2	-41.66	--	51665
Brusque	BR	-27.09	-48.91	--	51666
Buique	BR	-8.62	-37.15	--	51670
Cabo	BR	-8.25	-35	--	51685
Cabo Frio	BR	-22.87	-42.01	--	51686
Cacador	BR	-26.77	-51.01	--	51690
Cacapava	BR	-23.1	-45.7	--	51691
Caceres	BR	-16.07	-57.67	--	51694
Cachoeira do Sul	BR	-30.03	-52.89	--	51698
Cachoeiras de Macacu	BR	-22.46	-42.65	--	51699
Cachoeirinha	BR	-29.95	-51.09	--	51700
Cachoeiro de Itapemirim	BR	-20.84	-41.11	--	51702
Cacoal	BR	-11.43	-61.44	--	51705
Caetite	BR	-14.06	-42.47	--	51713
Caico	BR	-6.45	-37.09	--	51718
Caieiras	BR	-23.36	-46.74	--	51719
Cajamar	BR	-23.35	-46.87	--	51721
Cajazeiras	BR	-6.89	-38.55	--	51725
Camacari	BR	-12.69	-38.32	--	51732
Camaqua	BR	-30.85	-51.81	--	51736
Camaragibe	BR	-8.02	-34.98	--	51737
Cambe	BR	-23.27	-51.27	--	51740
Cameta	BR	-2.24	-49.49	--	51745
Camocim	BR	-2.9	-40.84	--	51746
Campina Grande	BR	-7.23	-35.88	--	51750
Campinas	BR	-22.89	-47.08	--	51755
Campo Alegre	BR	-9.78	-36.35	--	51756
Campo Belo	BR	-20.89	-45.27	--	51759
Campo Bom	BR	-29.67	-51.05	--	51760
Campo Formoso	BR	-10.5	-40.32	--	51762
Campo Grande	BR	-20.44	-54.64	--	51763
Campo Largo	BR	-25.45	-49.52	--	51765
Campo Limpo Paulista	BR	-23.2	-46.78	--	51766
Campo Maior	BR	-4.82	-42.16	--	51767
Campo Mourao	BR	-24.04	-52.38	--	51768
Campos	BR	-21.75	-41.29	--	51771
Campos Elyseos	BR	-22.7	-43.25	--	51774
Campos do Jordao	BR	-22.73	-45.59	--	51779
Campos dos Goytacazes	BR	-21.75	-41.32	--	51780
Candeias	BR	-12.66	-38.55	--	51789
Cangucu	BR	-31.39	-52.67	--	51799
Caninde	BR	-4.35	-39.31	--	51801
Canoas	BR	-29.91	-51.18	--	51803
Canoinhas	BR	-26.17	-50.38	--	51804
Capanema	BR	-1.19	-47.18	--	51812
Capao Bonito	BR	-24	-48.34	--	51814
Capitao Poco	BR	-1.74	-47.05	--	51828
Capivari	BR	-22.99	-47.5	--	51830
Caraguatatuba	BR	-23.62	-45.41	--	51835
Carapicuiba	BR	-23.52	-46.83	--	51840
Caratinga	BR	-19.78	-42.13	--	51841
Carazinho	BR	-28.28	-52.78	--	51845
Careiro	BR	-3.76	-60.36	--	51848
Cariacica	BR	-20.26	-40.41	--	51850
Carpina	BR	-7.85	-35.25	--	51873
Caruaru	BR	-8.28	-35.97	--	51874
Casa Nova	BR	-9.16	-40.97	--	51877
Cascavel	BR	-24.95	-53.45	--	51879
Cascavel	BR	-4.13	-38.24	--	51880
Castanhal	BR	-1.29	-47.92	--	51884
Castro	BR	-24.79	-50.01	--	51889
Cataguases	BR	-21.38	-42.69	--	51891
Catalao	BR	-18.16	-47.94	--	51892
Catanduva	BR	-21.13	-48.97	--	51893
Catu	BR	-12.35	-38.37	--	51897
Caucaia	BR	-3.73	-38.65	--	51900
Cavaleiro	BR	-8.09	-34.99	--	51901
Caxias	BR	-4.85	-43.35	--	51903
Caxias do Sul	BR	-29.16	-51.17	--	51904
Ceara-Mirim	BR	-5.63	-35.42	--	51905
Chapadinha	BR	-3.74	-43.36	--	51925
Chapeco	BR	-27.09	-52.61	--	51926
Cianorte	BR	-23.66	-52.6	--	51935
Coari	BR	-4.08	-63.14	--	51943
Codo	BR	-4.45	-43.88	--	51949
Coelho Neto	BR	-4.25	-43.01	--	51950
Coelho da Rocha	BR	-22.77	-43.38	--	51951
Colatina	BR	-19.53	-40.63	--	51953
Colombo	BR	-25.29	-49.22	--	51958
Conceicao do Araguaia	BR	-8.25	-49.26	--	51971
Conceicao do Coite	BR	-11.56	-39.28	--	51973
Concordia	BR	-27.23	-52.02	--	51979
Conselheiro Lafaiete	BR	-20.66	-43.78	--	51986
Contagem	BR	-19.93	-44.05	--	51989
Cornelio Procopio	BR	-23.18	-50.64	--	52001
Coroata	BR	-4.12	-44.12	--	52003
Coronel Fabriciano	BR	-19.51	-42.62	--	52005
Corumba	BR	-19	-57.65	--	52015
Coruripe	BR	-10.12	-36.17	--	52018
Cosmopolis	BR	-22.64	-47.19	--	52019
Cotia	BR	-23.6	-46.91	--	52023
Crateus	BR	-5.17	-40.67	--	52026
Crato	BR	-7.23	-39.4	--	52027
Criciuma	BR	-28.67	-49.36	--	52029
Cruz Alta	BR	-28.63	-53.6	--	52040
Cruz das Almas	BR	-12.66	-39.1	--	52042
Cruzeiro	BR	-22.57	-44.96	--	52044
Cruzeiro do Sul	BR	-7.63	-72.66	--	52046
Cubatao	BR	-23.89	-46.42	--	52049
Cuiaba	BR	-15.59	-56.09	--	52050
Curitiba	BR	-25.42	-49.27	--	52059
Curitibanos	BR	-27.28	-50.58	--	52060
Currais Novos	BR	-6.26	-36.51	--	52062
Cururupu	BR	-1.82	-44.86	--	52065
Curvelo	BR	-18.75	-44.43	--	52066
Delmiro Gouveia	BR	-9.38	-37.99	--	52069
Diadema	BR	-23.68	-46.62	--	52075
Diamantina	BR	-18.24	-43.6	--	52076
Divinopolis	BR	-20.13	-44.88	--	52084
Dom Pedrito	BR	-30.98	-54.67	--	52091
Dourados	BR	-22.22	-54.8	--	52097
Dracena	BR	-21.48	-51.53	--	52099
Duque de Caxias	BR	-22.78	-43.29	--	52102
Embu	BR	-23.64	-46.85	--	52112
Embu-Guacu	BR	-23.83	-46.81	--	52113
Erechim	BR	-27.63	-52.27	--	52122
Escada	BR	-8.35	-35.22	--	52125
Esperantina	BR	-3.9	-42.23	--	52129
Espirito Santo do Pinhal	BR	-22.11	-46.68	--	52134
Estancia	BR	-11.26	-37.43	--	52137
Esteio	BR	-29.86	-51.17	--	52139
Euclides da Cunha	BR	-10.5	-39.01	--	52143
Eunapolis	BR	-16.37	-39.58	--	52146
Farroupilha	BR	-29.22	-51.34	--	52153
Feira de Santana	BR	-12.26	-38.96	--	52162
Fernandopolis	BR	-20.28	-50.24	--	52164
Ferraz de Vasconcelos	BR	-23.54	-46.36	--	52165
Floriano	BR	-6.76	-43.02	--	52176
Florianopolis	BR	-27.59	-48.54	--	52177
Formiga	BR	-20.46	-45.42	--	52181
Formosa	BR	-15.53	-47.33	--	52182
Fortaleza	BR	-3.74	-38.51	--	52188
Foz do Iguacu	BR	-25.54	-54.58	--	52192
Franca	BR	-20.53	-47.4	--	52194
Francisco Beltrao	BR	-26.08	-53.05	--	52196
Francisco Morato	BR	-23.28	-46.74	--	52197
Franco da Rocha	BR	-23.32	-46.72	--	52199
Frutal	BR	-20.02	-48.94	--	52203
Garanhuns	BR	-8.89	-36.49	--	52209
Garca	BR	-22.21	-49.65	--	52211
Gaspar	BR	-26.93	-48.95	--	52215
Goiana	BR	-7.56	-35	--	52228
Goianesia	BR	-15.31	-49.11	--	52229
Goiania	BR	-16.67	-49.25	--	52231
Goio-Ere	BR	-24.18	-53.02	--	52237
Governador Valadares	BR	-18.85	-41.94	--	52245
Grajau	BR	-5.81	-46.13	--	52247
Granja	BR	-3.12	-40.82	--	52250
Gravata	BR	-8.2	-35.56	--	52252
Gravatai	BR	-29.94	-50.99	--	52253
Guaiba	BR	-30.11	-51.32	--	52256
Guanambi	BR	-14.22	-42.78	--	52262
Guarabira	BR	-6.85	-35.48	--	52271
Guarapari	BR	-20.66	-40.49	--	52281
Guarapuava	BR	-25.39	-51.45	--	52282
Guaratingueta	BR	-22.81	-45.19	--	52286
Guaruja	BR	-23.99	-46.25	--	52289
Guarulhos	BR	-23.46	-46.53	--	52290
Guaxupe	BR	-21.3	-46.71	--	52291
Gurupi	BR	-11.72	-49.06	--	52297
Hortolandia	BR	-22.85	-47.21	--	52304
Humaita	BR	-7.5	-63.02	--	52305
Ibipora	BR	-23.26	-51.04	--	52324
Ibirite	BR	-20.02	-44.05	--	52328
Ibitinga	BR	-21.75	-48.82	--	52331
Ibiuna	BR	-23.65	-47.22	--	52333
Icara	BR	-28.71	-49.29	--	52336
Ico	BR	-6.4	-38.86	--	52340
Igarape-Miri	BR	-1.97	-48.95	--	52351
Igarassu	BR	-7.83	-34.9	--	52352
Iguatu	BR	-6.35	-39.29	--	52360
Ijui	BR	-28.38	-53.91	--	52361
Ilheus	BR	-14.78	-39.04	--	52364
Imperatriz	BR	-5.52	-47.49	--	52369
Indaiatuba	BR	-23.09	-47.21	--	52373
Inhumas	BR	-16.35	-49.49	--	52382
Ipatinga	BR	-19.46	-42.53	--	52388
Ipiau	BR	-14.13	-39.73	--	52393
Ipiiba	BR	-22.86	-42.94	--	52394
Ipira	BR	-12.15	-39.73	--	52395
Ipojuca	BR	-8.39	-35.06	--	52398
Irati	BR	-25.46	-50.65	--	52412
Irece	BR	-11.3	-41.85	--	52414
Itabaiana	BR	-10.68	-37.42	--	52419
Itaberaba	BR	-12.52	-40.3	--	52423
Itabira	BR	-19.61	-43.22	--	52425
Itaborai	BR	-22.74	-42.85	--	52427
Itabuna	BR	-14.78	-39.28	--	52428
Itacoatiara	BR	-3.14	-58.44	--	52431
Itaguai	BR	-22.85	-43.77	--	52437
Itaituba	BR	-4.27	-55.98	--	52444
Itajai	BR	-26.9	-48.66	--	52445
Itajuba	BR	-22.42	-45.45	--	52447
Itamaraju	BR	-17.03	-39.53	--	52451
Itanhaem	BR	-24.18	-46.78	--	52458
Itapecerica da Serra	BR	-23.71	-46.84	--	52471
Itapecuru Mirim	BR	-3.39	-44.35	--	52472
Itapemirim	BR	-21.01	-40.83	--	52474
Itaperuna	BR	-21.2	-41.88	--	52476
Itapetinga	BR	-15.24	-40.24	--	52478
Itapetininga	BR	-23.59	-48.05	--	52479
Itapeva	BR	-23.98	-48.87	--	52480
Itapevi	BR	-23.54	-46.93	--	52481
Itapipoca	BR	-3.36	-39.83	--	52483
Itapira	BR	-22.43	-46.82	--	52484
Itaquaquecetuba	BR	-23.48	-46.34	--	52496
Itaquari	BR	-20.33	-40.36	--	52497
Itaqui	BR	-29.12	-56.55	--	52498
Itarare	BR	-24.11	-49.33	--	52503
Itatiba	BR	-23	-46.83	--	52507
Itauna	BR	-20.07	-44.57	--	52513
Itu	BR	-23.26	-47.29	--	52519
Ituiutaba	BR	-18.96	-49.46	--	52522
Itumbiara	BR	-18.41	-49.21	--	52523
Itupiranga	BR	-5.13	-49.32	--	52525
Ivaipora	BR	-24.24	-51.68	--	52532
Jaboatao	BR	-8.18	-35	--	52535
Jaboatao dos Guararapes	BR	-8.11	-35.01	--	52536
Jaboticabal	BR	-21.25	-48.32	--	52538
Jacarei	BR	-23.3	-45.96	--	52543
Jacarezinho	BR	-23.16	-49.96	--	52544
Jacobina	BR	-11.18	-40.51	--	52548
Jaguaquara	BR	-13.53	-39.97	--	52553
Jales	BR	-20.26	-50.54	--	52567
Janauba	BR	-15.8	-43.3	--	52568
Jandira	BR	-23.52	-46.9	--	52570
Januaria	BR	-15.48	-44.36	--	52571
Japeri	BR	-22.64	-43.65	--	52573
Jaragua do Sul	BR	-26.48	-49.06	--	52577
Jaru	BR	-10.43	-62.46	--	52585
Jatai	BR	-17.88	-51.71	--	52586
Jau	BR	-22.29	-48.55	--	52589
Jequie	BR	-13.85	-40.08	--	52592
Jeremoabo	BR	-10.07	-38.48	--	52594
Ji-Parana	BR	-10.88	-61.95	--	52596
Joao Lisboa	BR	-5.44	-47.4	--	52604
Joao Monlevade	BR	-19.8	-43.17	--	52605
Joao Pessoa	BR	-7.11	-34.86	--	52607
Joao Pinheiro	BR	-17.74	-46.17	--	52608
Joinville	BR	-26.3	-48.84	--	52612
Juazeiro	BR	-9.41	-40.49	--	52619
Juazeiro do Norte	BR	-7.21	-39.31	--	52620
Juina	BR	-11.37	-58.74	--	52624
Juiz de Fora	BR	-21.76	-43.35	--	52625
Jundiai	BR	-23.18	-46.88	--	52628
Lagarto	BR	-10.91	-37.64	--	52645
Lages	BR	-27.81	-50.32	--	52646
Lago da Pedra	BR	-4.54	-45.11	--	52648
Laguna	BR	-28.48	-48.78	--	52663
Lajeado	BR	-29.46	-51.96	--	52665
Lapa	BR	-25.76	-49.71	--	52671
Lauro de Freitas	BR	-12.89	-38.32	--	52679
Lavras	BR	-21.24	-44.99	--	52680
Leme	BR	-22.18	-47.39	--	52683
Lencois Paulista	BR	-22.59	-48.8	--	52684
Leopoldina	BR	-21.53	-42.64	--	52685
Limeira	BR	-22.56	-47.4	--	52689
Limoeiro	BR	-7.87	-35.45	--	52690
Limoeiro do Norte	BR	-5.14	-38.09	--	52693
Linhares	BR	-19.39	-40.07	--	52694
Lins	BR	-21.67	-49.74	--	52695
Londrina	BR	-23.31	-51.16	--	52698
Lorena	BR	-22.73	-45.12	--	52699
Luziania	BR	-16.25	-47.95	--	52705
Macae	BR	-22.37	-41.78	--	52707
Macaiba	BR	-5.85	-35.35	--	52708
Macapa	BR	0.03	-51.06	--	52710
Maceio	BR	-9.66	-35.71	--	52716
Mafra	BR	-26.11	-49.8	--	52722
Mage	BR	-22.65	-43.04	--	52724
Mairipora	BR	-23.31	-46.58	--	52727
Mamanguape	BR	-6.83	-35.12	--	52733
Manacapuru	BR	-3.29	-60.62	--	52735
Manaus	BR	-3.13	-60.01	--	52738
Manhuacu	BR	-20.25	-42.03	--	52745
Manicore	BR	-5.8	-61.3	--	52747
Maraba	BR	-5.36	-49.11	--	52756
Maracanau	BR	-3.87	-38.62	--	52760
Maragogipe	BR	-12.77	-38.91	--	52763
Maranguape	BR	-3.89	-38.68	--	52765
Mariana	BR	-20.37	-43.41	--	52780
Marica	BR	-22.91	-42.81	--	52782
Marilia	BR	-22.21	-49.94	--	52783
Maringa	BR	-23.42	-51.93	--	52785
Matao	BR	-21.6	-48.36	--	52798
Maua	BR	-23.66	-46.46	--	52812
Mauriti	BR	-7.38	-38.77	--	52814
Medianeira	BR	-25.29	-54.09	--	52817
Mesquita	BR	-22.78	-43.42	--	52825
Mirassol	BR	-20.81	-49.52	--	52854
Mococa	BR	-21.46	-47	--	52859
Mogi das Cruzes	BR	-23.52	-46.18	--	52861
Mogi-Guacu	BR	-22.37	-46.94	--	52862
Mogi-Mirim	BR	-22.43	-46.95	--	52863
Moji-Mirim	BR	-22.43	-46.95	--	52864
Moju	BR	-1.88	-48.76	--	52865
Mombaca	BR	-5.74	-39.62	--	52866
Monjolo	BR	-22.79	-42.96	--	52869
Monte Alegre	BR	-2	-54.06	--	52875
Monte Alto	BR	-21.26	-48.49	--	52878
Monte Santo	BR	-10.43	-39.33	--	52885
Montenegro	BR	-29.68	-51.46	--	52889
Montes Claros	BR	-16.73	-43.86	--	52891
Morada Nova	BR	-5.1	-38.37	--	52892
Moreno	BR	-8.11	-35.09	--	52895
Mossoro	BR	-5.18	-37.34	--	52904
Muriae	BR	-21.13	-42.36	--	52919
Muribeca dos Guararapes	BR	-8.16	-35.01	--	52920
Nanuque	BR	-17.83	-40.35	--	52926
Natal	BR	-5.78	-35.21	--	52928
Neves	BR	-22.85	-43.08	--	52939
Nilopolis	BR	-22.8	-43.41	--	52943
Niquelandia	BR	-14.47	-48.45	--	52945
Niteroi	BR	-22.88	-43.1	--	52947
Nossa Senhora do Socorro	BR	-10.85	-37.12	--	52954
Nova Friburgo	BR	-22.28	-42.53	--	52966
Nova Iguacu	BR	-22.75	-43.45	--	52970
Nova Lima	BR	-19.98	-43.84	--	52972
Nova Odessa	BR	-22.77	-47.29	--	52974
Nova Venecia	BR	-18.71	-40.4	--	52988
Novo Hamburgo	BR	-29.67	-51.13	--	52995
Obidos	BR	-1.91	-55.51	--	53002
Oeiras	BR	-7.02	-42.13	--	53004
Olimpia	BR	-20.73	-48.91	--	53008
Olinda	BR	-8	-34.85	--	53009
Oriximina	BR	-1.76	-55.86	--	53015
Osasco	BR	-23.53	-46.79	--	53023
Ouricuri	BR	-7.88	-40.08	--	53028
Ourinhos	BR	-22.97	-49.87	--	53030
Ouro Preto	BR	-20.28	-43.5	--	53033
Ouro Preto do Oeste	BR	-10.74	-62.21	--	53034
Pacatuba	BR	-3.98	-38.61	--	53039
Paco do Lumiar	BR	-2.53	-44.1	--	53041
Palhoca	BR	-27.64	-48.66	--	53047
Palmares	BR	-8.68	-35.59	--	53048
Palmas	BR	-26.48	-51.99	--	53050
Palmas	BR	-10.21	-48.36	--	53051
Palmeira das Missoes	BR	-27.89	-53.31	--	53055
Palmeira dos Indios	BR	-9.4	-36.62	--	53056
Para de Minas	BR	-19.86	-44.6	--	53072
Paracambi	BR	-22.61	-43.7	--	53073
Paracatu	BR	-17.22	-46.87	--	53074
Paragominas	BR	-2.99	-47.35	--	53076
Paraguacu Paulista	BR	-22.41	-50.57	--	53078
Paranagua	BR	-25.51	-48.5	--	53089
Paranaiba	BR	-19.67	-51.19	--	53090
Paranavai	BR	-23.07	-52.46	--	53095
Parauapebas	BR	-6.06	-49.9	--	53101
Parintins	BR	-2.62	-56.73	--	53103
Parnaiba	BR	-2.9	-41.77	--	53107
Parnamirim	BR	-5.91	-35.26	--	53109
Parque Industrial	BR	-19.96	-44.02	--	53112
Passo Fundo	BR	-28.26	-52.4	--	53116
Passos	BR	-20.71	-46.6	--	53118
Pato Branco	BR	-26.22	-52.67	--	53120
Patos	BR	-7.02	-37.27	--	53121
Patos de Minas	BR	-18.57	-46.51	--	53122
Patrocinio	BR	-18.94	-46.99	--	53123
Paudalho	BR	-7.89	-35.17	--	53129
Paulinia	BR	-22.76	-47.15	--	53131
Paulista	BR	-7.94	-34.87	--	53133
Paulo Afonso	BR	-9.4	-38.21	--	53135
Pedra Branca	BR	-5.45	-39.71	--	53144
Pedreiras	BR	-4.56	-44.59	--	53150
Pedro II	BR	-4.42	-41.45	--	53155
Pedro Leopoldo	BR	-19.61	-44.04	--	53156
Peixoto de Azevedo	BR	-10.22	-54.97	--	53159
Pelotas	BR	-31.77	-52.34	--	53160
Penapolis	BR	-21.41	-50.07	--	53162
Penedo	BR	-10.29	-36.58	--	53164
Pesqueira	BR	-8.35	-36.69	--	53175
Petrolina	BR	-9.39	-40.5	--	53177
Petropolis	BR	-22.5	-43.17	--	53179
Picos	BR	-7.07	-41.46	--	53183
Piedade	BR	-23.71	-47.42	--	53185
Pimenta Bueno	BR	-11.67	-61.19	--	53190
Pindamonhangaba	BR	-22.92	-45.46	--	53193
Pinhais	BR	-25.44	-49.19	--	53198
Pinheirinho	BR	-25.52	-49.3	--	53202
Pinheiro	BR	-2.52	-45.08	--	53203
Piracicaba	BR	-22.72	-47.64	--	53213
Pirapora	BR	-17.34	-44.94	--	53225
Pirassununga	BR	-21.99	-47.42	--	53228
Piripiri	BR	-4.27	-41.77	--	53233
Pitanga	BR	-24.75	-51.76	--	53236
Planaltina	BR	-15.45	-47.61	--	53243
Poa	BR	-23.52	-46.34	--	53248
Pocoes	BR	-14.52	-40.36	--	53256
Pocos de Caldas	BR	-21.78	-46.56	--	53258
Pombal	BR	-6.77	-37.8	--	53261
Ponta Grossa	BR	-25.09	-50.16	--	53266
Ponta Pora	BR	-22.53	-55.72	--	53267
Ponte Nova	BR	-20.41	-42.9	--	53271
Pontes e Lacerda	BR	-15.22	-59.33	--	53272
Porangatu	BR	-13.44	-49.14	--	53275
Porteirinha	BR	-15.74	-43.02	--	53280
Porto Alegre	BR	-30.07	-51.22	--	53284
Porto Feliz	BR	-23.21	-47.52	--	53286
Porto Ferreira	BR	-21.85	-47.47	--	53287
Porto Nacional	BR	-10.7	-48.41	--	53290
Porto Seguro	BR	-16.44	-39.06	--	53292
Porto Velho	BR	-8.76	-63.9	--	53294
Pouso Alegre	BR	-22.21	-45.93	--	53303
Praia Grande	BR	-24	-46.4	--	53308
Presidente Dutra	BR	-5.28	-44.48	--	53312
Presidente Prudente	BR	-22.12	-51.38	--	53319
Presidente Venceslau	BR	-21.87	-51.84	--	53321
Prudentopolis	BR	-25.21	-50.97	--	53330
Queimados	BR	-22.71	-43.55	--	53339
Quixada	BR	-4.97	-39.01	--	53349
Quixeramobim	BR	-5.19	-39.29	--	53350
Recife	BR	-8.04	-34.89	--	53358
Redencao	BR	-8.02	-50.03	--	53361
Registro	BR	-24.48	-47.84	--	53364
Resende	BR	-22.46	-44.44	--	53368
Riachao do Jacuipe	BR	-11.8	-39.38	--	53377
Ribeira do Pombal	BR	-10.83	-38.53	--	53383
Ribeirao	BR	-8.51	-35.37	--	53384
Ribeirao Pires	BR	-23.71	-46.41	--	53388
Ribeirao Preto	BR	-21.17	-47.81	--	53389
Ribeirao das Neves	BR	-19.76	-44.08	--	53390
Rio Bonito	BR	-22.7	-42.6	--	53398
Rio Branco	BR	-9.97	-67.81	--	53399
Rio Claro	BR	-22.41	-47.56	--	53403
Rio Grande	BR	-32.03	-52.09	--	53406
Rio Largo	BR	-9.47	-35.85	--	53409
Rio Pardo	BR	-29.98	-52.37	--	53415
Rio Pardo de Minas	BR	-15.6	-42.53	--	53416
Rio Verde	BR	-17.79	-50.92	--	53421
Rio de Janeiro	BR	-22.9	-43.17	--	53427
Rio do Sul	BR	-27.21	-49.64	--	53430
Rolandia	BR	-23.3	-51.36	--	53431
Rolim de Moura	BR	-11.8	-61.8	--	53433
Rondonopolis	BR	-16.47	-54.63	--	53437
Rosario	BR	-2.93	-44.23	--	53439
Rosario do Sul	BR	-30.25	-54.91	--	53441
Russas	BR	-4.94	-37.97	--	53445
Sabara	BR	-19.88	-43.8	--	53447
Salgueiro	BR	-8.07	-39.11	--	53456
Salinas	BR	-16.17	-42.29	--	53457
Salto	BR	-23.2	-47.28	--	53461
Salvador	BR	-12.98	-38.51	--	53465
Santa Barbara d'Oeste	BR	-22.75	-47.41	--	53472
Santa Cruz do Capibaribe	BR	-7.95	-36.2	--	53483
Santa Cruz do Rio Pardo	BR	-22.89	-49.63	--	53484
Santa Cruz do Sul	BR	-29.71	-52.42	--	53485
Santa Ines	BR	-3.66	-45.37	--	53491
Santa Isabel	BR	-23.31	-46.22	--	53493
Santa Luzia	BR	-3.96	-45.65	--	53498
Santa Luzia	BR	-19.76	-43.85	--	53500
Santa Luzia do Parua	BR	-2.5	-45.77	--	53505
Santa Maria	BR	-29.68	-53.8	--	53507
Santa Maria da Boa Vista	BR	-8.8	-39.82	--	53509
Santa Maria da Vitoria	BR	-13.39	-44.18	--	53510
Santa Quiteria	BR	-4.33	-40.15	--	53518
Santa Rita	BR	-7.11	-34.97	--	53520
Santa Rosa	BR	-27.87	-54.48	--	53525
Santa Vitoria do Palmar	BR	-33.51	-53.36	--	53531
Santana	BR	0.05	-51.18	--	53533
Santana de Parnaiba	BR	-23.44	-46.91	--	53535
Santana do Livramento	BR	-30.89	-55.53	--	53540
Santarem	BR	-2.44	-54.7	--	53544
Santiago	BR	-29.19	-54.86	--	53545
Santo Amaro	BR	-12.54	-38.71	--	53546
Santo Andre	BR	-23.66	-46.53	--	53550
Santo Angelo	BR	-28.29	-54.26	--	53551
Santo Antonio da Patrulha	BR	-29.81	-50.51	--	53553
Santo Antonio da Platina	BR	-23.29	-50.07	--	53554
Santo Antonio de Jesus	BR	-12.96	-39.26	--	53556
Santo Antonio do Descoberto	BR	-15.93	-48.25	--	53560
Santo Estevao	BR	-12.43	-39.25	--	53570
Santos	BR	-23.96	-46.33	--	53571
Santos Dumont	BR	-21.45	-43.55	--	53572
Sao Benedito	BR	-4.04	-40.86	--	53573
Sao Bento do Sul	BR	-26.25	-49.37	--	53577
Sao Bento do Una	BR	-8.52	-36.44	--	53578
Sao Bernardo do Campo	BR	-23.69	-46.56	--	53580
Sao Borja	BR	-28.66	-56	--	53581
Sao Caetano do Sul	BR	-23.62	-46.55	--	53583
Sao Carlos	BR	-22.01	-47.89	--	53584
Sao Cristovao	BR	-11.01	-37.2	--	53586
Sao Francisco	BR	-15.94	-44.86	--	53601
Sao Gabriel	BR	-30.33	-54.31	--	53608
Sao Geraldo do Araguaia	BR	-6.4	-48.55	--	53613
Sao Goncalo	BR	-22.85	-43.06	--	53614
Sao Goncalo do Amarante	BR	-5.79	-35.32	--	53616
Sao Joao da Barra	BR	-21.64	-41.05	--	53629
Sao Joao da Boa Vista	BR	-21.96	-46.79	--	53630
Sao Joao de Meriti	BR	-22.8	-43.37	--	53632
Sao Joao del Rei	BR	-21.13	-44.26	--	53634
Sao Joaquim da Barra	BR	-20.58	-47.85	--	53642
Sao Jose	BR	-27.61	-48.62	--	53644
Sao Jose de Ribamar	BR	-2.56	-44.05	--	53650
Sao Jose do Rio Pardo	BR	-21.59	-46.88	--	53661
Sao Jose do Rio Preto	BR	-20.81	-49.37	--	53662
Sao Jose dos Campos	BR	-23.17	-45.88	--	53664
Sao Jose dos Pinhais	BR	-25.53	-49.2	--	53665
Sao Leopoldo	BR	-29.76	-51.14	--	53667
Sao Lourenco da Mata	BR	-8	-35.01	--	53669
Sao Lourenco do Sul	BR	-31.36	-51.97	--	53671
Sao Luis	BR	-2.51	-44.26	--	53672
Sao Luiz Gonzaga	BR	-28.4	-54.96	--	53679
Sao Manuel	BR	-22.73	-48.57	--	53680
Sao Mateus	BR	-18.71	-39.85	--	53682
Sao Miguel d'Oeste	BR	-26.72	-53.51	--	53688
Sao Miguel dos Campos	BR	-9.78	-36.09	--	53694
Sao Paulo	BR	-23.54	-46.63	--	53695
Sao Pedro da Aldeia	BR	-22.83	-42.1	--	53699
Sao Roque	BR	-23.52	-47.13	--	53704
Sao Sebastiao	BR	-23.76	-45.4	--	53706
Sao Sebastiao do Paraiso	BR	-20.91	-46.99	--	53711
Sao Sebastiao do Passe	BR	-12.51	-38.49	--	53712
Sao Vicente	BR	-23.96	-46.39	--	53717
Sape	BR	-7.09	-35.23	--	53720
Sapiranga	BR	-29.63	-51	--	53722
Sapucaia do Sul	BR	-29.82	-51.14	--	53724
Saquarema	BR	-22.91	-42.51	--	53725
Sarandi	BR	-23.44	-51.87	--	53727
Seabra	BR	-12.41	-41.77	--	53731
Senador Jose Porfirio	BR	-2.59	-51.95	--	53738
Senhor do Bonfim	BR	-10.46	-40.18	--	53741
Serra	BR	-20.12	-40.3	--	53744
Serra Talhada	BR	-7.99	-38.29	--	53749
Serrinha	BR	-11.66	-39	--	53753
Sertaozinho	BR	-21.13	-47.99	--	53759
Sete Lagoas	BR	-19.46	-44.24	--	53761
Sete Pontes	BR	-22.84	-43.06	--	53762
Simoes Filho	BR	-12.78	-38.4	--	53772
Sinop	BR	-11.86	-55.5	--	53776
Sobral	BR	-3.68	-40.34	--	53783
Sorocaba	BR	-23.5	-47.45	--	53790
Sousa	BR	-6.75	-38.22	--	53793
Sumare	BR	-22.82	-47.26	--	53796
Surubim	BR	-7.83	-35.75	--	53799
Suzano	BR	-23.54	-46.31	--	53800
Taboao da Serra	BR	-23.62	-46.79	--	53805
Tangara da Serra	BR	-14.61	-57.48	--	53821
Taquara	BR	-29.65	-50.78	--	53833
Taquaritinga	BR	-21.4	-48.5	--	53836
Tatui	BR	-23.35	-47.85	--	53843
Taua	BR	-6	-40.29	--	53844
Taubate	BR	-23.02	-45.55	--	53845
Tefe	BR	-3.35	-64.71	--	53847
Teixeira de Freitas	BR	-17.53	-39.74	--	53850
Telemaco Borba	BR	-24.32	-50.61	--	53853
Teofilo Otoni	BR	-17.85	-41.5	--	53857
Teresina	BR	-5.08	-42.81	--	53861
Teresopolis	BR	-22.41	-42.96	--	53862
Tiangua	BR	-3.73	-40.99	--	53871
Timbauba	BR	-7.5	-35.31	--	53876
Timon	BR	-5.09	-42.83	--	53879
Timoteo	BR	-19.58	-42.64	--	53880
Tobias Barreto	BR	-11.18	-37.99	--	53882
Toledo	BR	-24.71	-53.74	--	53885
Tome-Acu	BR	-2.41	-48.15	--	53888
Trairi	BR	-3.27	-39.26	--	53896
Tres Coracoes	BR	-21.69	-45.25	--	53903
Tres Lagoas	BR	-20.75	-51.67	--	53905
Tres Pontas	BR	-21.36	-45.51	--	53908
Tres Rios	BR	-22.11	-43.2	--	53909
Trindade	BR	-16.64	-49.48	--	53911
Tubarao	BR	-28.46	-49	--	53916
Tucano	BR	-10.96	-38.78	--	53917
Tucuma	BR	-6.74	-51.16	--	53918
Tucurui	BR	-3.76	-49.67	--	53919
Tupa	BR	-21.93	-50.51	--	53922
Turiacu	BR	-1.66	-45.37	--	53927
Tutoia	BR	-2.76	-42.27	--	53932
Uba	BR	-21.11	-42.94	--	53934
Ubatuba	BR	-23.43	-45.07	--	53941
Uberaba	BR	-19.74	-47.93	--	53942
Uberlandia	BR	-18.91	-48.27	--	53943
Umuarama	BR	-23.76	-53.32	--	53952
Unai	BR	-16.35	-46.9	--	53954
Uniao da Vitoria	BR	-26.22	-51.08	--	53956
Uniao dos Palmares	BR	-9.16	-36.03	--	53957
Uruacu	BR	-14.52	-49.14	--	53961
Uruguaiana	BR	-29.75	-57.08	--	53971
Vacaria	BR	-28.51	-50.93	--	53976
Valenca	BR	-13.37	-39.07	--	53979
Valenca	BR	-22.24	-43.7	--	53980
Valinhos	BR	-22.97	-46.99	--	53983
Varginha	BR	-21.55	-45.43	--	53989
Varzea Grande	BR	-15.64	-56.13	--	53992
Varzea Paulista	BR	-23.21	-46.82	--	53994
Venancio Aires	BR	-29.6	-52.19	--	54000
Vespasiano	BR	-19.69	-43.92	--	54010
Viamao	BR	-30.08	-51.02	--	54011
Viana	BR	-20.39	-40.49	--	54012
Viana	BR	-3.22	-45	--	54013
Vicente de Carvalho	BR	-23.93	-46.31	--	54015
Vicosa	BR	-20.75	-42.88	--	54016
Vicosa do Ceara	BR	-3.56	-41.09	--	54018
Videira	BR	-27	-51.15	--	54019
Vigia	BR	-0.85	-48.14	--	54020
Vila Velha	BR	-20.32	-40.29	--	54023
Vilhena	BR	-12.74	-60.14	--	54024
Vinhedo	BR	-23.02	-46.97	--	54025
Viseu	BR	-1.19	-46.13	--	54030
Vitoria	BR	-20.31	-40.33	--	54031
Vitoria da Conquista	BR	-14.86	-40.83	--	54032
Vitoria de Santo Antao	BR	-8.11	-35.29	--	54033
Vitoria do Mearim	BR	-3.46	-44.87	--	54034
Volta Redonda	BR	-22.52	-44.1	--	54037
Votorantim	BR	-23.54	-47.43	--	54038
Votuporanga	BR	-20.42	-49.97	--	54039
Xanxere	BR	-26.87	-52.4	--	54044
Xinguara	BR	-7.09	-49.94	--	54048
Xique-Xique	BR	-10.82	-42.73	--	54049
Ze Doca	BR	-3.27	-45.65	--	54050
Bandar Seri Begawan	BX	4.93	114.94	--	54051
Bobonong	BC	-21.97	28.43	--	54055
Francistown	BC	-21.16	27.5	--	54056
Gaborone	BC	-24.66	25.9	--	54057
Selebi-Phikwe	BC	-21.96	27.8	--	54066
Tutume	BC	-20.52	27.06	--	54068
Bangui	CT	4.36	18.58	--	54069
Bouar	CT	5.93	15.59	--	54071
Abbotsford	CA	49.04	-122.28	BC	54072
Ajax	CA	43.85	-79.01	ON	54074
Barrie	CA	44.38	-79.67	ON	54083
Beauport	CA	46.85	-71.18	QC	54086
Brampton	CA	43.69	-79.77	ON	54097
Brandon	CA	49.84	-99.95	MB	54098
Brantford	CA	43.14	-80.27	ON	54099
Brossard	CA	45.45	-73.48	QC	54102
Burlington	CA	43.35	-79.76	ON	54104
Burnaby	CA	49.26	-122.93	BC	54105
Caledon	CA	43.86	-80	ON	54106
Calgary	CA	51.01	-113.98	AB	54107
Cambridge	CA	43.37	-80.34	ON	54108
Cape Breton	CA	46.31	-60.67	NS	54114
Charlesbourg	CA	46.86	-71.23	QC	54117
Chateauguay	CA	45.38	-73.75	QC	54120
Chicoutimi	CA	48.4	-71.04	QC	54122
Chilliwack	CA	49.16	-121.94	BC	54123
Coquitlam	CA	49.26	-122.76	BC	54130
Cornwall	CA	45.03	-74.73	ON	54132
Dartmouth	CA	44.74	-63.54	NS	54137
Delta	CA	49.09	-123.05	BC	54140
Dollard-des-Ormeaux	CA	45.45	-73.84	QC	54143
Drummondville	CA	45.87	-72.49	QC	54145
East York	CA	43.71	-79.33	ON	54148
Edmonton	CA	53.55	-113.5	AB	54149
Etobicoke	CA	43.63	-79.5	ON	54154
Fredericton	CA	45.93	-66.66	NB	54160
Gatineau	CA	45.48	-75.66	ON	54163
Gloucester	CA	45.39	-75.58	AB	54165
Granby	CA	45.37	-72.7	QC	54166
Guelph	CA	43.54	-80.25	ON	54172
Halifax	CA	44.72	-63.65	NS	54174
Hamilton	CA	43.24	-79.81	ON	54175
Hull	CA	45.44	-75.79	QC	54177
Jonquiere	CA	48.41	-71.27	QC	54180
Kamloops	CA	50.7	-120.36	BC	54181
Kanata	CA	45.33	-75.9	ON	54182
Kelowna	CA	49.88	-119.47	BC	54184
Kingston	CA	44.26	-76.49	ON	54186
Kitchener	CA	43.44	-80.53	ON	54189
LaSalle	CA	45.43	-73.66	QC	54198
Laval	CA	45.56	-73.66	QC	54203
Lethbridge	CA	49.68	-112.84	AB	54206
Levis	CA	46.78	-71.2	QC	54207
London	CA	42.98	-81.23	ON	54211
Longueuil	CA	45.53	-73.51	QC	54212
Maple Ridge	CA	49.22	-122.61	BC	54215
Markham	CA	43.86	-79.26	ON	54216
Matsqui	CA	49.04	-122.33	BC	54219
Medicine Hat	CA	50.02	-110.65	AB	54220
Mississauga	CA	43.63	-79.59	ON	54226
Moncton	CA	46.06	-64.79	NB	54227
Montreal	CA	45.49	-73.55	QC	54231
Montreal-Nord	CA	45.6	-73.61	QC	54232
Nanaimo	CA	49.15	-123.95	BC	54235
Nepean	CA	45.26	-75.76	ON	54237
New Westminster	CA	49.16	-122.86	BC	54238
Newmarket	CA	44.04	-79.45	ON	54239
Niagara Falls	CA	43.09	-79.11	ON	54240
North Bay	CA	46.29	-79.43	ON	54244
North Vancouver	CA	49.33	-123.14	BC	54247
North York	CA	43.73	-79.43	ON	54248
Oakville	CA	43.46	-79.67	ON	54251
Oshawa	CA	43.88	-78.89	ON	54255
Ottawa	CA	45.39	-75.7	ON	54256
Peterborough	CA	44.29	-78.31	ON	54263
Pickering	CA	43.86	-79.03	ON	54264
Pierrefonds	CA	45.46	-73.88	QC	54265
Port Coquitlam	CA	49.23	-122.77	BC	54272
Prince George	CA	53.91	-122.72	BC	54278
Quebec	CA	46.8	-71.24	QC	54280
Red Deer	CA	52.26	-113.81	AB	54282
Regina	CA	50.45	-104.65	SK	54283
Repentigny	CA	45.73	-73.45	QC	54284
Richmond	CA	49.15	-123.17	BC	54285
Richmond Hill	CA	43.86	-79.43	ON	54286
Saint John	CA	45.27	-66.08	NB	54296
Saint-Eustache	CA	45.56	-73.9	QC	54301
Saint-Hubert	CA	45.3	-73.25	QC	54303
Saint-Hyacinthe	CA	45.62	-72.91	QC	54304
Saint-Laurent	CA	45.51	-73.66	QC	54309
Sainte-Foy	CA	46.78	-71.29	QC	54313
Sarnia	CA	42.95	-82.35	ON	54319
Saskatoon	CA	52.1	-106.66	SK	54320
Sault Ste Marie	CA	46.53	-84.34	ON	54321
Scarborough	CA	43.73	-79.26	ON	54322
Sherbrooke	CA	45.38	-71.89	QC	54326
St Albert	CA	53.62	-113.62	AB	54333
St Catharines	CA	43.14	-79.26	ON	54334
St John's	CA	47.55	-52.68	NF	54335
St-Leonard	CA	45.58	-73.59	QC	54337
Stoney Creek	CA	43.21	-79.75	ON	54338
Sudbury	CA	46.48	-81	ON	54341
Surrey	CA	49.19	-122.87	BC	54344
Terrebonne	CA	45.7	-73.61	QC	54349
Thunder Bay	CA	48.42	-89.23	ON	54353
Timmins	CA	48.45	-81.35	ON	54355
Toronto	CA	43.66	-79.4	ON	54356
Trois-Rivieres	CA	46.33	-72.56	QC	54359
Vancouver	CA	49.27	-123.13	BC	54366
Vaughan	CA	43.78	-79.59	ON	54370
Verdun	CA	45.46	-73.58	QC	54371
Victoria	CA	48.45	-123.44	BC	54373
Victoriaville	CA	46.06	-71.96	QC	54374
Waterloo	CA	43.46	-80.53	ON	54377
Welland	CA	42.98	-79.24	ON	54378
West Vancouver	CA	49.36	-123.2	BC	54379
Whitby	CA	43.86	-78.93	ON	54382
Windsor	CA	42.28	-83.02	ON	54387
Winnipeg	CA	49.89	-97.07	MB	54388
York	CA	43.7	-79.45	ON	54391
Basle	SZ	47.55	7.59	--	54402
Berne	SZ	46.95	7.44	--	54404
Biel/Bienne	SZ	47.13	7.25	--	54405
Geneva	SZ	46.19	6.14	--	54424
Lausanne	SZ	46.52	6.62	--	54442
Luzern	SZ	47.05	8.31	--	54448
Sankt Gallen	SZ	47.43	9.38	--	54475
Thun	SZ	46.74	7.63	--	54487
Winterthur	SZ	47.49	8.74	--	54498
Zurich	SZ	47.37	8.53	--	54504
Ancud	CI	-41.86	-73.81	--	54506
Angol	CI	-37.79	-72.71	--	54508
Antofagasta	CI	-23.64	-70.4	--	54509
Apoquindo	CI	-33.39	-70.53	--	54510
Arica	CI	-18.47	-70.32	--	54512
Buin	CI	-33.73	-70.75	--	54513
Calama	CI	-22.45	-68.92	--	54517
Calera	CI	-32.78	-71.21	--	54520
Cauquenes	CI	-35.96	-72.34	--	54528
Cerrillos	CI	-33.49	-70.7	--	54529
Cerro Navia	CI	-33.41	-70.72	--	54530
Chillan	CI	-36.6	-72.11	--	54533
Coihaique	CI	-45.56	-72.06	--	54538
Colina	CI	-33.2	-70.68	--	54541
Concepcion	CI	-36.83	-73.05	--	54545
Conchali	CI	-33.39	-70.65	--	54546
Constitucion	CI	-35.33	-72.41	--	54547
Copiapo	CI	-27.36	-70.33	--	54548
Coquimbo	CI	-29.95	-71.34	--	54549
Coronel	CI	-37.01	-73.13	--	54550
Curico	CI	-34.98	-71.23	--	54556
El Bosque	CI	-33.56	-70.7	--	54559
Iquique	CI	-20.2	-70.15	--	54573
La Calera	CI	-32.78	-71.2	--	54575
La Cisterna	CI	-33.54	-70.68	--	54576
La Florida	CI	-33.54	-70.56	--	54577
La Granja	CI	-33.53	-70.65	--	54578
La Reina	CI	-33.45	-70.54	--	54580
La Serena	CI	-29.9	-71.25	--	54581
La Union	CI	-40.28	-73.08	--	54582
Las Condes	CI	-33.36	-70.48	--	54588
Las Rejas	CI	-33.45	-70.7	--	54589
Linares	CI	-35.85	-71.59	--	54593
Lo Barnechea	CI	-33.35	-70.51	--	54596
Lo Espejo	CI	-33.53	-70.71	--	54597
Lo Prado Arriba	CI	-33.43	-70.75	--	54598
Los Andes	CI	-32.83	-70.61	--	54602
Los Angeles	CI	-37.46	-72.34	--	54603
Lota	CI	-37.08	-73.16	--	54607
Macul	CI	-33.5	-70.56	--	54610
Maipu	CI	-33.51	-70.76	--	54611
Melipilla	CI	-33.7	-71.21	--	54616
Nunoa	CI	-33.46	-70.59	--	54625
Osorno	CI	-40.56	-73.15	--	54628
Ovalle	CI	-30.59	-71.2	--	54629
Paine	CI	-33.81	-70.75	--	54631
Parral	CI	-36.14	-71.83	--	54634
Penaflor	CI	-33.61	-70.91	--	54636
Penalolen	CI	-33.48	-70.53	--	54637
Penco	CI	-36.73	-72.98	--	54638
Providencia	CI	-33.43	-70.61	--	54644
Puente Alto	CI	-33.61	-70.58	--	54647
Puerto Montt	CI	-41.47	-72.93	--	54648
Punta Arenas	CI	-53.14	-70.91	--	54651
Quilicura	CI	-33.36	-70.75	--	54657
Quillota	CI	-32.88	-71.26	--	54660
Quilpue	CI	-33.04	-71.44	--	54661
Quinta Normal	CI	-33.45	-70.7	--	54662
Rancagua	CI	-34.16	-70.75	--	54666
Recoleta	CI	-33.41	-70.65	--	54667
Renca	CI	-33.39	-70.73	--	54668
Rengo	CI	-34.41	-70.86	--	54669
San Antonio	CI	-33.58	-71.63	--	54677
San Bernardo	CI	-33.6	-70.71	--	54678
San Carlos	CI	-36.41	-71.96	--	54679
San Felipe	CI	-32.75	-70.73	--	54682
San Fernando	CI	-34.58	-71	--	54683
San Miguel	CI	-33.5	-70.66	--	54686
San Ramon	CI	-33.45	-70.5	--	54688
Santiago	CI	-33.45	-70.66	--	54694
Talagante	CI	-33.66	-70.93	--	54696
Talca	CI	-35.43	-71.66	--	54697
Talcahuano	CI	-36.71	-73.11	--	54698
Temuco	CI	-38.73	-72.59	--	54700
Tome	CI	-36.61	-72.95	--	54707
Valdivia	CI	-39.79	-73.23	--	54709
Vallenar	CI	-28.57	-70.75	--	54710
Valparaiso	CI	-33.04	-71.6	--	54711
Villa Alemana	CI	-33.04	-71.37	--	54716
Vina del Mar	CI	-33	-71.51	--	54718
Vitacura	CI	-33.39	-70.59	--	54719
A'cheng	CH	45.52	126.94	--	54723
A`ershan	CH	47.14	120.06	--	54724
A`lihe	CH	50.58	123.7	--	54726
Aihui	CH	50.26	127.46	--	54731
Akesu	CH	41.17	80.25	--	54732
Aksu	CH	41.16	80.24	--	54733
Aletai	CH	47.83	88.12	--	54734
Altay	CH	47.81	88.12	--	54735
Anbu	CH	23.45	116.67	--	54738
Anda	CH	46.39	125.33	--	54740
Andong	CH	30.26	121.21	--	54741
Anjiang	CH	27.31	110.14	--	54745
Ankang	CH	32.69	109.03	--	54746
Anlu	CH	31.25	113.66	--	54749
Anqing	CH	30.5	117.01	--	54751
Anqiu	CH	36.42	119.19	--	54752
Anshan	CH	41.09	122.98	--	54754
Anshun	CH	26.24	105.93	--	54755
Anyang	CH	36.08	114.35	--	54758
Aoyang	CH	28.23	114.89	--	54762
Babu	CH	24.4	111.52	--	54765
Baicheng	CH	45.62	122.85	--	54772
Baiguan	CH	30.02	120.86	--	54775
Baiquan	CH	47.61	126.09	--	54778
Baise	CH	23.9	106.62	--	54780
Baisha	CH	29.45	119.27	--	54781
Baiyin	CH	36.53	104.22	--	54790
Bamiantong	CH	44.9	130.52	--	54796
Baoding	CH	38.85	115.49	--	54803
Baoji	CH	34.37	107.14	--	54805
Baoqing	CH	46.32	132.19	--	54808
Baotou	CH	40.67	109.76	--	54811
Baoying	CH	33.22	119.3	--	54812
Bayan	CH	46.07	127.39	--	54819
Bayanhaote	CH	38.83	105.66	--	54822
Bazhou	CH	31.85	106.76	--	54828
Bei'an	CH	48.22	126.47	--	54830
Beihai	CH	21.47	109.1	--	54833
Beijing	CH	39.91	116.37	--	54835
Beipiao	CH	41.81	120.74	--	54836
Bengbu	CH	32.91	117.38	--	54842
Benxi	CH	41.28	123.77	--	54843
Bijie	CH	27.3	105.27	--	54847
Binxian	CH	37.47	117.94	--	54849
Binzhou	CH	45.75	127.48	--	54851
Binzhou	CH	37.36	118	--	54852
Bole	CH	44.9	82.07	--	54857
Boli	CH	45.74	130.56	--	54858
Bose	CH	23.91	106.6	--	54861
Boshan	CH	36.48	117.85	--	54862
Botou	CH	38.06	116.55	--	54863
Boxian	CH	33.88	115.75	--	54864
Boxing	CH	37.12	118.13	--	54865
Boyang	CH	29	116.63	--	54867
Bozhou	CH	33.87	115.75	--	54868
Butha Qi	CH	48.01	122.74	--	54872
Caidian	CH	30.58	114.01	--	54874
Cangzhou	CH	38.3	116.85	--	54878
Caohejing	CH	31.16	121.41	--	54883
Chaihe	CH	44.74	129.69	--	54890
Chang - Changleng	CH	28.67	115.8	--	54892
Changchun	CH	44.08	125.66	--	54896
Changde	CH	29.04	111.71	--	54897
Changge	CH	34.21	113.76	--	54899
Changji	CH	44.01	87.29	--	54901
Changli	CH	39.7	119.15	--	54904
Changling	CH	44.27	123.98	--	54905
Changqing	CH	36.54	116.73	--	54911
Changsha	CH	28.19	112.98	--	54912
Changshou	CH	29.83	107.06	--	54914
Changshu	CH	31.64	120.73	--	54916
Changtu	CH	42.77	124.1	--	54918
Changtu	CH	42.77	124.12	--	54919
Changyi	CH	36.85	119.39	--	54922
Changzhi	CH	36.18	113.08	--	54924
Changzhou	CH	31.77	119.96	--	54925
Chaohu	CH	31.6	117.85	--	54927
Chaoxian	CH	31.66	117.79	--	54928
Chaoyang	CH	41.56	120.44	--	54929
Chaoyang	CH	23.25	116.59	--	54930
Chaoyang	CH	42.67	126.03	--	54931
Chaozhou	CH	23.65	116.62	--	54934
Cheng	CH	37.42	112.52	--	54940
Chengcheng	CH	23.46	116.75	--	54942
Chengde	CH	40.96	117.91	--	54943
Chengdu	CH	30.65	104.06	--	54944
Chengguan	CH	32.95	117.18	--	54946
Chengguan	CH	35.39	116.94	--	54947
Chengguan	CH	30.14	104.63	--	54948
Chengguan - Anxiang	CH	29.41	112.15	--	54953
Chengguan - Changshou	CH	29.81	107.08	--	54964
Chengguan - Changyuan	CH	35.19	114.66	--	54965
Chengguan - Dancheng	CH	33.63	115.17	--	54972
Chengguan - Dangshan	CH	34.41	116.34	--	54973
Chengguan - Dangtu	CH	31.54	118.49	--	54974
Chengguan - Dingxi	CH	35.59	104.57	--	54979
Chengguan - Fushun	CH	29.19	104.98	--	54994
Chengguan - Guoyang	CH	33.5	116.2	--	55002
Chengguan - Gushi	CH	32.17	115.65	--	55003
Chengguan - Guyuan	CH	36.01	106.27	--	55005
Chengguan - Hanchuan	CH	30.64	113.82	--	55007
Chengguan - Hong`an	CH	31.28	114.61	--	55015
Chengguan - Huaibin	CH	32.43	115.38	--	55018
Chengguan - Huaidianhuizu	CH	33.38	115.04	--	55019
Chengguan - Huaiyanghuizu	CH	33.72	114.86	--	55021
Chengguan - Huangchuan	CH	32.12	115.02	--	55022
Chengguan - Huarong	CH	29.52	112.55	--	55024
Chengguan - Huoqiu	CH	32.33	116.26	--	55029
Chengguan - Jiexiu	CH	37.02	111.89	--	55035
Chengguan - Jixian	CH	40.03	117.39	--	55043
Chengguan - Linquan	CH	33.06	115.24	--	55056
Chengguan - Lishi	CH	37.51	111.11	--	55064
Chengguan - Liuyang	CH	28.14	113.63	--	55065
Chengguan - Luoshan	CH	32.18	114.51	--	55074
Chengguan - Mengcheng	CH	33.26	116.54	--	55078
Chengguan - Minquan	CH	34.63	115.11	--	55085
Chengguan - Nanzhang	CH	31.77	111.83	--	55091
Chengguan - Ninghai	CH	29.28	121.41	--	55094
Chengguan - Ningxiang	CH	28.25	112.54	--	55098
Chengguan - Pinghu	CH	30.69	121.01	--	55103
Chengguan - Pingyao	CH	37.2	112.15	--	55107
Chengguan - Qiyang	CH	26.58	111.84	--	55118
Chengguan - Sangqiu	CH	34.37	115.59	--	55123
Chengguan - Shengxian	CH	29.59	120.8	--	55129
Chengguan - Shouxian	CH	32.57	116.77	--	55134
Chengguan - Tanghe	CH	32.69	112.81	--	55145
Chengguan - Tiantai	CH	29.14	121.01	--	55150
Chengguan - Wenling	CH	28.36	121.35	--	55163
Chengguan - Wugang	CH	26.72	110.61	--	55167
Chengguan - Wuhe	CH	33.14	117.89	--	55168
Chengguan - Wuyuan	CH	41.09	108.27	--	55171
Chengguan - Xiangyin	CH	28.66	112.88	--	55175
Chengguan - Xianju	CH	28.85	120.72	--	55177
Chengguan - Xihua	CH	33.78	114.5	--	55181
Chengguan - Xinchang	CH	29.48	120.88	--	55183
Chengguan - Xinhua	CH	27.74	111.28	--	55188
Chengguan - Xinye	CH	32.51	112.33	--	55191
Chengguan - Yicheng	CH	31.7	112.25	--	55211
Chengguan - Yongji	CH	34.86	110.42	--	55221
Chengguan - Yongkang	CH	28.89	120.02	--	55222
Chengguan - Youxian	CH	26.99	113.33	--	55225
Chengguan - Zhenhai	CH	29.95	121.71	--	55237
Chengguan - Zhenping	CH	33.03	112.21	--	55239
Chengguan - Zhongjiang	CH	31.03	104.67	--	55241
Chenghai	CH	23.46	116.76	--	55257
Chengqiao	CH	31.62	121.38	--	55259
Chengyang	CH	35.57	118.82	--	55271
Chenyang	CH	28	110.18	--	55276
Chenzhou	CH	25.78	113.02	--	55278
Chifeng	CH	42.26	118.96	--	55281
Chonglong	CH	29.79	104.86	--	55286
Chongqing	CH	29.57	106.56	--	55287
Chu Xian	CH	32.33	118.29	--	55290
Chuncheng	CH	22.17	111.77	--	55293
Chuxiong	CH	25.02	101.53	--	55295
Chuzhou	CH	32.32	118.29	--	55296
Cixi	CH	30.16	121.23	--	55298
Cixi	CH	30.16	121.24	--	55299
Da'an	CH	45.5	124.3	--	55305
Dachangzhen	CH	32.23	118.75	--	55309
Dadong	CH	39.87	124.14	--	55311
Dali	CH	25.58	100.23	--	55323
Dalian	CH	38.94	121.57	--	55325
Daliang	CH	22.83	113.25	--	55326
Dancheng	CH	29.47	121.86	--	55331
Dandong	CH	40.12	124.36	--	55332
Dangyang	CH	30.81	111.79	--	55335
Danjiangkou	CH	32.55	111.5	--	55336
Danshui	CH	22.79	114.46	--	55337
Danyang	CH	31.99	119.53	--	55338
Danyang Shi - Yunyang	CH	31.99	119.6	--	55339
Daokou	CH	35.57	114.48	--	55341
Daqing	CH	46.58	125	--	55343
Dashiqiao	CH	40.62	122.51	--	55347
Dashitou	CH	43.29	128.5	--	55348
Tatung	CH	40.09	113.29	--	55349
Datun	CH	23.41	103.28	--	55352
Dawa	CH	40.97	122.06	--	55354
Daxian	CH	31.22	107.49	--	55358
Dayan	CH	49.1	120.61	--	55362
Dayan	CH	26.87	100.23	--	55363
Dayangshu	CH	49.74	124.6	--	55364
Daye	CH	30.09	114.96	--	55365
Dayong	CH	29.13	110.5	--	55366
Dazhong	CH	33.21	120.51	--	55368
Dehui	CH	44.51	125.7	--	55373
Dengfeng	CH	34.45	113.01	--	55376
Dengzhou	CH	37.8	120.75	--	55378
Deqing	CH	30.54	120.08	--	55380
Deyang	CH	31.14	104.38	--	55382
Dezhou	CH	37.43	116.26	--	55383
Didao	CH	45.33	130.81	--	55388
Dinghai	CH	30.01	122.1	--	55394
Dingshu	CH	31.27	119.87	--	55396
Dingtao	CH	35.06	115.56	--	55397
Dingzhou	CH	38.51	114.97	--	55399
Dongcun	CH	36.77	121.15	--	55402
Dongfeng	CH	42.66	125.53	--	55405
Dongguan	CH	23.03	113.73	--	55407
Donghai	CH	22.95	115.63	--	55411
Dongkan	CH	34	119.87	--	55413
Dongli	CH	23.57	116.8	--	55415
Dongning	CH	44.06	131.12	--	55417
Dongning - Xiancheng	CH	44.05	131.12	--	55418
Dongsheng	CH	39.81	109.98	--	55428
Dongtai	CH	32.84	120.31	--	55430
Dongyang	CH	29.26	120.22	--	55432
Dongying	CH	37.48	118.48	--	55433
Dongzhen	CH	22.35	110.94	--	55434
Douhudi	CH	30.06	112.21	--	55436
Ducheng	CH	23.24	111.51	--	55440
Dujiang Yan	CH	31.01	103.63	--	55442
Dukou	CH	26.56	101.68	--	55443
Dunhua	CH	43.36	128.22	--	55446
Duyun	CH	26.26	107.52	--	55451
Echeng	CH	36.15	116.04	--	55452
Encheng	CH	22.18	112.29	--	55456
Enshi	CH	30.26	109.46	--	55458
Ergun Zuoqi	CH	50.78	121.51	--	55461
Ezhou	CH	30.38	114.87	--	55464
Faku	CH	42.5	123.4	--	55465
Feicheng	CH	35.26	117.95	--	55475
Feixian	CH	35.26	117.95	--	55476
Fengcheng	CH	40.46	124.05	--	55481
Fengcheng	CH	28.18	115.77	--	55482
Fengfeng	CH	36.46	114.21	--	55486
Fenggang	CH	26.41	117.77	--	55487
Fenghua	CH	29.65	121.39	--	55488
Fengzhen	CH	40.44	113.13	--	55503
Fenyi	CH	27.8	114.66	--	55504
Foshan	CH	23.03	113.09	--	55505
Fu Xian	CH	36.03	109.28	--	55507
Fucheng	CH	19.99	110.34	--	55509
Fujin	CH	47.25	132.04	--	55518
Fuli	CH	46.71	131.13	--	55520
Fuling	CH	29.7	107.37	--	55522
Fuqing	CH	25.72	119.38	--	55523
Fushun	CH	41.84	123.85	--	55526
Fuxin	CH	42	121.65	--	55528
Fuxin	CH	42.06	121.73	--	55529
Fuyang	CH	32.88	115.8	--	55531
Fuyang	CH	30.06	119.94	--	55532
Fuyu	CH	47.78	124.45	--	55534
Fuyu	CH	45.17	124.84	--	55535
Fuyu	CH	47.78	124.44	--	55536
Fuzhou	CH	26.06	119.28	--	55538
Fuzhou	CH	27.99	116.35	--	55539
Gaixian	CH	40.39	122.33	--	55542
Gaizhou	CH	40.39	122.36	--	55543
Ganhe	CH	50.61	123.05	--	55546
Ganhe	CH	50.62	123.05	--	55547
Gannan	CH	47.9	123.46	--	55549
Ganzhou	CH	25.86	114.93	--	55552
Gaomi	CH	36.38	119.74	--	55560
Gaoqing	CH	37.18	117.78	--	55565
Gaoyou	CH	32.8	119.43	--	55571
Gaozhou	CH	21.92	110.84	--	55573
Ge`ermu	CH	36.41	94.89	--	55575
Gejiu	CH	23.38	103.15	--	55577
Genhe	CH	50.78	121.54	--	55579
Golmud	CH	36.42	94.89	--	55581
Gongchangling	CH	41.1	123.46	--	55583
Gongzhuling	CH	43.51	124.83	--	55590
Gu`nan	CH	29.02	106.64	--	55593
Guanghan	CH	30.98	104.27	--	55598
Guanghua	CH	32.41	111.63	--	55599
Guangshui	CH	31.61	113.8	--	55602
Guangyuan	CH	32.44	105.86	--	55605
Canton	CH	23.12	113.23	--	55606
Guanxian	CH	36.48	115.41	--	55614
Guanxian	CH	31	103.61	--	55615
Guichi	CH	30.64	117.48	--	55624
Guigang	CH	23.09	109.6	--	55626
Guihu	CH	30.83	104.15	--	55627
Guilin	CH	25.28	110.28	--	55628
Guixian	CH	23.1	109.59	--	55631
Guiyang	CH	26.58	106.7	--	55632
Guiyu	CH	23.32	116.34	--	55633
Guo zhen	CH	34.35	107.37	--	55643
Guojiadian	CH	43.33	124.57	--	55645
Hai`an	CH	32.54	120.44	--	55653
Haicheng	CH	40.84	122.74	--	55654
Haicheng	CH	22.98	115.33	--	55655
Haifeng	CH	22.97	115.33	--	55657
Haikou	CH	20.04	110.33	--	55658
Haikou	CH	24.78	102.56	--	55659
Haila`er	CH	49.22	119.71	--	55660
Hailar	CH	49.21	119.72	--	55661
Hailin	CH	44.58	129.38	--	55662
Hailong	CH	42.64	125.84	--	55664
Hailun	CH	47.45	126.94	--	55666
Haimen	CH	23.19	116.61	--	55667
Haimen	CH	31.89	121.19	--	55668
Haining	CH	30.51	120.69	--	55669
Haiyang	CH	29.76	118.17	--	55671
Hami	CH	42.83	93.51	--	55674
Hancheng	CH	35.48	110.43	--	55676
Hancheng	CH	35.46	110.42	--	55677
Handan	CH	36.58	114.47	--	55678
Hangu	CH	39.25	117.73	--	55680
Hangzhou	CH	30.23	120.15	--	55681
Hanting	CH	36.77	119.21	--	55684
Hanzhong	CH	33.07	107.02	--	55687
Harbin	CH	45.74	126.61	--	55693
Hebi	CH	35.87	114.16	--	55694
Hechi	CH	24.68	108.05	--	55697
Hechuan	CH	26.94	114.22	--	55698
Hecun	CH	36.53	114.11	--	55701
Hede	CH	33.78	120.3	--	55702
Hefei	CH	31.84	117.28	--	55703
Hegang	CH	47.32	130.29	--	55704
Heihe	CH	50.24	127.47	--	55705
Heishan	CH	41.69	122.11	--	55706
Hejiang	CH	28.8	105.83	--	55708
Helong	CH	42.54	129	--	55713
Hengshui	CH	37.72	115.7	--	55716
Hengyang	CH	26.89	112.59	--	55718
Hengzhou	CH	22.68	109.26	--	55719
Hetian	CH	37.17	79.84	--	55727
Heyang	CH	30.01	106.25	--	55731
Heyuan	CH	23.72	114.68	--	55733
Heze	CH	35.24	115.46	--	55734
Honghu	CH	29.82	113.48	--	55737
Hongjiang	CH	27.1	109.96	--	55738
Hongmei	CH	42.42	125.63	--	55742
Horqin Youyi Qianqi	CH	46.03	122	--	55750
Hotan	CH	37.12	79.93	--	55751
Houma	CH	35.59	111.34	--	55753
Hua`nan	CH	46.22	130.52	--	55756
Huadian	CH	42.97	126.76	--	55758
Huai`an	CH	33.49	119.12	--	55761
Huaibei	CH	33.97	116.78	--	55762
Huaicheng	CH	23.91	112.18	--	55763
Huaide	CH	43.5	124.79	--	55764
Huaihua	CH	27.55	109.95	--	55765
Huainan	CH	32.62	116.93	--	55767
Huaiyin	CH	33.58	119.02	--	55770
Huangcun	CH	39.73	116.33	--	55774
Huanggang	CH	23.68	117	--	55776
Huangnihe	CH	43.54	128.01	--	55782
Huangshan	CH	29.7	118.3	--	55786
Huangshi	CH	30.18	115.07	--	55787
Huangyan	CH	28.64	121.25	--	55789
Huangzhou Shi - Huanggang	CH	30.45	114.83	--	55792
Huanren	CH	41.26	125.34	--	55793
Huayang	CH	31.94	119.2	--	55797
Huayun	CH	30.26	106.63	--	55803
Huazhou	CH	21.64	110.62	--	55804
Huhehaote	CH	40.81	111.64	--	55807
Huicheng	CH	23.02	116.26	--	55808
Huicheng	CH	22.51	113.03	--	55809
Huizhou	CH	23.08	114.38	--	55815
Hulan	CH	45.99	126.62	--	55818
Hulin	CH	45.76	132.97	--	55820
Humen	CH	22.84	113.66	--	55823
Hunchun	CH	42.86	130.36	--	55824
Hunjiang	CH	41.92	126.41	--	55825
Huolin'guole	CH	45.56	119.92	--	55826
Hushan	CH	28.88	119.8	--	55828
Huzhou	CH	30.84	120.08	--	55837
Ji'an	CH	41.13	126.2	--	55838
Ji'ning	CH	41.04	113.1	--	55839
Ji`nan	CH	36.64	116.96	--	55841
Ji`ning	CH	35.39	116.57	--	55842
Jiading	CH	31.38	121.22	--	55844
Jiagedaqi	CH	50.42	124.12	--	55846
Jiamusi	CH	46.79	130.34	--	55849
Jiancheng	CH	30.39	104.54	--	55853
Jiangdu	CH	32.44	119.6	--	55855
Jiangling	CH	30.35	112.18	--	55860
Jiangmen	CH	22.58	113.08	--	55861
Jiangshan	CH	28.73	118.62	--	55863
Jiangwan	CH	31.29	121.47	--	55866
Jiangyan	CH	32.52	120.18	--	55867
Jiangyin	CH	31.9	120.28	--	55868
Jiangyou	CH	31.76	104.72	--	55869
Jianhu	CH	33.47	119.83	--	55870
Jiaohe	CH	43.7	127.33	--	55873
Jiaojiang	CH	28.66	121.43	--	55874
Jiaonan	CH	35.86	119.98	--	55875
Jiaonan	CH	35.87	119.96	--	55876
Jiaoxian	CH	36.28	120	--	55877
Jiaozhou	CH	36.27	119.98	--	55878
Jiaozuo	CH	35.23	113.22	--	55879
Jiawang	CH	34.45	117.44	--	55882
Jiaxing	CH	30.75	120.73	--	55884
Jiayuguan	CH	39.79	98.26	--	55885
Jiayuguang	CH	39.79	98.25	--	55886
Jiazi	CH	22.86	116.04	--	55888
Jidong	CH	45.21	131.13	--	55889
Jiekou	CH	23.55	113.57	--	55893
Jieshi	CH	22.82	115.81	--	55896
Jieshou	CH	33.24	115.36	--	55897
Jiexiu	CH	37.02	111.9	--	55898
Jieyang	CH	23.53	116.34	--	55899
Jijiang	CH	29.28	106.25	--	55900
Jilin	CH	43.83	126.54	--	55901
Jimo	CH	36.38	120.46	--	55903
Jin Xian	CH	38.02	115.02	--	55905
Jin'e	CH	29.34	105.26	--	55906
Jinchang	CH	38.5	102.18	--	55908
Jincheng	CH	35.5	112.83	--	55909
Jincheng	CH	31.73	119.54	--	55910
Jingcheng	CH	32.03	120.31	--	55921
Jingdezhen	CH	29.27	117.19	--	55922
Jingdu	CH	23.2	116.54	--	55923
Jingmen	CH	31.01	112.18	--	55927
Jingzhou	CH	23.63	116.93	--	55934
Jingzhou	CH	30.34	112.18	--	55935
Jinhua	CH	29.11	119.65	--	55939
Jinma	CH	25.02	102.75	--	55943
Jinshi	CH	29.65	111.88	--	55949
Jinxi	CH	40.74	120.83	--	55954
Jinzhou	CH	41.11	121.14	--	55959
Jishou	CH	28.3	109.73	--	55961
Jishu	CH	44.28	126.79	--	55962
Jiujiang	CH	29.71	115.98	--	55964
Jiuquan	CH	39.72	98.51	--	55966
Jiutai	CH	44.14	125.83	--	55967
Jixi	CH	45.28	130.96	--	55969
Juancheng	CH	35.55	115.5	--	55973
Jun Xian	CH	32.54	111.5	--	55978
Junliangcheng	CH	39.06	117.44	--	55980
Juxian	CH	35.57	118.82	--	55982
Kaifeng	CH	34.79	114.33	--	55986
Kaihua	CH	23.37	104.25	--	55987
Kaili	CH	26.58	107.97	--	55988
Kaiping	CH	39.67	118.25	--	55990
Kaitong	CH	44.8	123.08	--	55992
Kaiyuan	CH	42.52	124.06	--	55993
Kaiyuan	CH	23.71	103.24	--	55994
Karamay	CH	45.61	84.86	--	56003
Kashi	CH	39.47	75.98	--	56004
Kedong	CH	48.04	126.24	--	56006
Kelamayi	CH	45.59	84.86	--	56009
Keshan	CH	48.02	125.88	--	56012
Korla	CH	41.73	86.16	--	56015
Kouqian	CH	43.65	126.49	--	56018
Ku`erle	CH	41.75	86.13	--	56020
Kuandian	CH	40.72	124.77	--	56022
Kuche	CH	41.71	82.95	--	56024
Kuitun	CH	44.42	84.89	--	56026
Kunming	CH	25.03	102.7	--	56029
Kunshan	CH	31.37	120.92	--	56030
Kuqa	CH	41.7	82.92	--	56034
Kuytun	CH	44.43	84.91	--	56035
Laibin	CH	23.71	109.18	--	56039
Laiwu	CH	36.19	117.63	--	56040
Laixi	CH	36.85	120.52	--	56041
Laiyang	CH	36.96	120.7	--	56042
Laizhou	CH	37.16	119.92	--	56043
Langfang	CH	39.5	116.67	--	56045
Langxiang	CH	46.94	128.86	--	56049
Langxiang	CH	46.94	128.86	--	56050
Langzhong Shi - Baoning	CH	31.58	105.96	--	56051
Lanxi	CH	29.2	119.46	--	56052
Lanxi	CH	46.25	126.28	--	56053
Lanzhou	CH	36.02	103.78	--	56054
Laohekou	CH	32.38	111.68	--	56057
Lasa	TB	29.65	91.13	--	56063
Lechang	CH	25.13	113.34	--	56064
Lecheng	CH	25.13	113.34	--	56065
Lecheng	CH	28.12	120.94	--	56066
Leicheng	CH	20.91	110.08	--	56067
Leiyang	CH	26.42	112.84	--	56070
Lengshuijiang	CH	27.68	111.42	--	56073
Lengshuitan	CH	26.43	111.56	--	56074
Leping	CH	28.96	117.12	--	56075
Leshan	CH	29.57	103.74	--	56076
Lhasa	TB	29.66	91.14	--	56079
Liancheng	CH	21.61	110.28	--	56081
Liangying	CH	23.23	116.35	--	56091
Lianran	CH	24.92	102.47	--	56095
Lianxia	CH	23.5	116.78	--	56098
Lianyuan	CH	27.67	111.65	--	56099
Lianyungang	CH	34.61	119.17	--	56100
Lianzhou	CH	24.78	112.36	--	56102
Lianzhou	CH	21.67	109.18	--	56103
Liaocheng	CH	36.43	115.96	--	56106
Liaoyang	CH	41.26	123.18	--	56108
Liaoyuan	CH	42.9	125.13	--	56109
Liaozhong	CH	41.45	122.75	--	56110
Licheng	CH	25.36	118.68	--	56111
Licheng	CH	23.29	113.81	--	56112
Lichuan	CH	30.3	108.93	--	56115
Liling	CH	27.67	113.49	--	56119
Lin`an	CH	30.22	119.71	--	56120
Linchuan	CH	27.99	116.35	--	56123
Lindian	CH	47.17	124.86	--	56124
Linfen	CH	36.08	111.5	--	56126
Lingcheng	CH	22.7	110.35	--	56127
Lingling	CH	26.23	111.61	--	56135
Lingyuan	CH	41.23	119.41	--	56141
Linhai	CH	28.84	121.11	--	56142
Linhe	CH	40.73	107.4	--	56143
Linkou	CH	45.28	130.27	--	56147
Linping	CH	30.41	120.3	--	56149
Linqing	CH	36.83	115.68	--	56151
Linqiong	CH	30.41	103.45	--	56152
Linqu	CH	36.51	118.52	--	56153
Linqu	CH	36.51	118.52	--	56154
Linshui	CH	36.42	114.19	--	56157
Linxia	CH	35.58	103.22	--	56159
Linyi	CH	35.05	118.34	--	56160
Lishan	CH	34.36	109.17	--	56163
Lishu	CH	43.3	124.32	--	56166
Lishui	CH	28.46	119.92	--	56167
Litang	CH	23.21	109.12	--	56168
Liu`an	CH	31.74	116.48	--	56169
Liucheng	CH	32.34	118.88	--	56170
Liucheng	CH	30.69	103.84	--	56171
Liuhe	CH	42.26	125.72	--	56174
Liupanshui	CH	26.57	104.86	--	56180
Liusha	CH	23.29	116.15	--	56181
Liuzhou	CH	24.33	109.4	--	56185
Liyang	CH	31.41	119.47	--	56186
Liyang Shi - Licheng	CH	31.42	119.51	--	56188
Long	CH	48.68	126.71	--	56191
Longcheng	CH	34.18	116.93	--	56193
Longhua	CH	29.16	107.09	--	56200
Longjiang	CH	47.33	123.18	--	56203
Longjing	CH	42.76	129.4	--	56208
Longkou	CH	37.64	120.33	--	56209
Longkou	CH	37.64	120.34	--	56210
Longyan	CH	25.1	117.01	--	56229
Longyuan	CH	28.07	119.11	--	56233
Loudi	CH	27.72	111.98	--	56237
Lu'an	CH	31.74	116.46	--	56238
Lufeng	CH	22.95	115.63	--	56246
Lujiang	CH	31.23	117.27	--	56251
Luocheng	CH	22.76	111.56	--	56256
Luocheng	CH	25.03	118.79	--	56257
Luohe	CH	33.53	114.02	--	56258
Luoyang	CH	34.66	112.45	--	56265
Luoyang	CH	23.17	114.27	--	56266
Lushuihe	CH	42.51	127.8	--	56272
Luzhou	CH	28.88	105.37	--	56278
Ma'anshan	CH	31.71	118.5	--	56279
Macheng	CH	31.17	115	--	56283
Maigaoqiao	CH	32.11	118.85	--	56285
Mangshi	CH	24.44	98.58	--	56297
Manzhouli	CH	49.56	117.5	--	56298
Maoming	CH	21.67	110.91	--	56301
Mei Xian	CH	34.24	107.74	--	56310
Meihekou	CH	42.52	125.68	--	56314
Meilu	CH	21.45	110.75	--	56319
Meixian	CH	24.32	116.11	--	56326
Meizhou	CH	24.31	116.1	--	56327
Mengxian	CH	34.9	112.79	--	56332
Mengyin	CH	35.7	117.91	--	56334
Mengyin	CH	35.7	117.93	--	56335
Mi-Xian	CH	34.5	113.35	--	56336
Miancheng	CH	23.26	116.59	--	56337
Mianhu	CH	23.44	116.13	--	56339
Mianyang	CH	31.47	104.72	--	56340
Mingguang	CH	32.77	117.98	--	56348
Mingshui	CH	47.17	125.9	--	56350
Mingshui	CH	36.71	117.52	--	56351
Mingyue	CH	43.1	128.91	--	56352
Minhang	CH	31	121.38	--	56355
Minhe	CH	28.37	116.26	--	56356
Mishan	CH	45.54	131.86	--	56358
Mudanjiang	CH	44.58	129.62	--	56365
Nada	CH	19.5	109.56	--	56373
Nahe	CH	48.48	124.87	--	56374
Nancha	CH	47.11	129.25	--	56381
Nanchang	CH	28.67	115.88	--	56382
Nanchong	CH	30.78	106.06	--	56384
Nangong	CH	37.36	115.36	--	56385
Nanking	CH	32.04	118.78	--	56389
Nanlong	CH	31.35	106.05	--	56392
Nanning	CH	22.83	108.32	--	56394
Nanpiao	CH	41.11	120.71	--	56396
Nanping	CH	26.65	118.13	--	56397
Nanpu	CH	27.91	118.52	--	56400
Nanqiu	CH	36.73	118.25	--	56402
Nantong	CH	32.01	120.84	--	56405
Nanyang	CH	32.98	112.51	--	56410
Nanzhao	CH	23.7	117.16	--	56413
Neihuang	CH	35.93	114.88	--	56417
Neijiang	CH	29.56	105.03	--	56418
Nenjiang	CH	49.17	125.24	--	56420
Ning'an	CH	44.35	129.46	--	56426
Ning`an	CH	44.33	129.46	--	56427
Ningbo	CH	29.86	121.52	--	56429
